{
"type": "FeatureCollection",
"crs": { "type": "name", "properties": { "name": "urn:ogc:def:crs:OGC:1.3:CRS84" } },
                                                                                
"features": [
{ "type": "Feature", "properties": { "NAME": "Smith St & Bergen St At Ne Corner (To Manhattan And Queens Only)", "URL": "http:\/\/www.mta.info\/nyct\/service\/", "LINE": "F-G" }, "geometry": { "type": "Point", "coordinates": [ -73.990271999344969, 40.686727997981855 ] } },
{ "type": "Feature", "properties": { "NAME": "Court St & Montague St At Sw Corner", "URL": "http:\/\/www.mta.info\/nyct\/service\/", "LINE": "2-3-4-5-N-R" }, "geometry": { "type": "Point", "coordinates": [ -73.990678000925499, 40.693724998853817 ] } },
{ "type": "Feature", "properties": { "NAME": "Court St & Montague St At Sw Corner", "URL": "http:\/\/www.mta.info\/nyct\/service\/", "LINE": "2-3-4-5-N-R" }, "geometry": { "type": "Point", "coordinates": [ -73.990591999101724, 40.693641998305559 ] } },
{ "type": "Feature", "properties": { "NAME": "Clinton St & Montague St At Nw Corner", "URL": "http:\/\/www.mta.info\/nyct\/service\/", "LINE": "2-3-4-5-N-R" }, "geometry": { "type": "Point", "coordinates": [ -73.992537356702144, 40.694392786197234 ] } },
{ "type": "Feature", "properties": { "NAME": "Flatbush Ave & Empire Blvd At Sw Corner", "URL": "http:\/\/www.mta.info\/nyct\/service\/", "LINE": "B-Q-S" }, "geometry": { "type": "Point", "coordinates": [ -73.962248915247926, 40.662727024905124 ] } },
{ "type": "Feature", "properties": { "NAME": "4th Ave & Union St At Sw Corner (To Bay Ridge And Coney Island Only)", "URL": "http:\/\/www.mta.info\/nyct\/service\/", "LINE": "D-N-R" }, "geometry": { "type": "Point", "coordinates": [ -73.983394168605841, 40.677164019820033 ] } },
{ "type": "Feature", "properties": { "NAME": "4th Ave & Union St At Se Corner (To Manhattan Only)", "URL": "http:\/\/www.mta.info\/nyct\/service\/", "LINE": "D-N-R" }, "geometry": { "type": "Point", "coordinates": [ -73.983082312481258, 40.677051302497766 ] } },
{ "type": "Feature", "properties": { "NAME": "4th Ave & Union St At Se Corner (To Manhattan Only)", "URL": "http:\/\/www.mta.info\/nyct\/service\/", "LINE": "D-N-R" }, "geometry": { "type": "Point", "coordinates": [ -73.982989996894887, 40.677194757250739 ] } },
{ "type": "Feature", "properties": { "NAME": "Flatbush Ave & Bergen St At Sw Corner (To New Lots And Flatbush Only)", "URL": "http:\/\/www.mta.info\/nyct\/service\/", "LINE": "2-3-4" }, "geometry": { "type": "Point", "coordinates": [ -73.975208999782211, 40.680698998820709 ] } },
{ "type": "Feature", "properties": { "NAME": "Lawrence St & Willoughby St At Ne Corner", "URL": "http:\/\/www.mta.info\/nyct\/service\/", "LINE": "N-R" }, "geometry": { "type": "Point", "coordinates": [ -73.986214643563088, 40.692043780335759 ] } },
{ "type": "Feature", "properties": { "NAME": "Lawrence St & Willoughby St At Se Corner", "URL": "http:\/\/www.mta.info\/nyct\/service\/", "LINE": "N-R" }, "geometry": { "type": "Point", "coordinates": [ -73.986113771109871, 40.692258082753774 ] } },
{ "type": "Feature", "properties": { "NAME": "Hoyt St & Fulton St At Sw Corner (To New Lots And Flatbush Only)", "URL": "http:\/\/www.mta.info\/nyct\/service\/", "LINE": "2-3" }, "geometry": { "type": "Point", "coordinates": [ -73.985271002038402, 40.690448999499353 ] } },
{ "type": "Feature", "properties": { "NAME": "Bridge St & Fulton St At Ne Corner (To Manhattan Only)", "URL": "http:\/\/www.mta.info\/nyct\/service\/", "LINE": "2-3" }, "geometry": { "type": "Point", "coordinates": [ -73.98525500098738, 40.690895000985442 ] } },
{ "type": "Feature", "properties": { "NAME": "Duffield St & Fulton St At Nw Corner (To Manhattan Only)", "URL": "http:\/\/www.mta.info\/nyct\/service\/", "LINE": "2-3" }, "geometry": { "type": "Point", "coordinates": [ -73.984550998313324, 40.690441999789641 ] } },
{ "type": "Feature", "properties": { "NAME": "Duffield St & Fulton St At Ne Corner (To Manhattan Only)", "URL": "http:\/\/www.mta.info\/nyct\/service\/", "LINE": "2-3" }, "geometry": { "type": "Point", "coordinates": [ -73.9843470012339, 40.690407001290289 ] } },
{ "type": "Feature", "properties": { "NAME": "Bridge St & Willoughby St At Sw Corner", "URL": "http:\/\/www.mta.info\/nyct\/service\/", "LINE": "N-R" }, "geometry": { "type": "Point", "coordinates": [ -73.985361437078424, 40.69209526865189 ] } },
{ "type": "Feature", "properties": { "NAME": "Bridge St & Willoughby St At Ne Corner", "URL": "http:\/\/www.mta.info\/nyct\/service\/", "LINE": "N-R" }, "geometry": { "type": "Point", "coordinates": [ -73.985196737270471, 40.692234605525393 ] } },
{ "type": "Feature", "properties": { "NAME": "Flatbush Ave & Fleet St At Ne Corner", "URL": "http:\/\/www.mta.info\/nyct\/service\/", "LINE": "B-D-N-Q-R" }, "geometry": { "type": "Point", "coordinates": [ -73.982159945351043, 40.691508468304001 ] } },
{ "type": "Feature", "properties": { "NAME": "4th Ave & Pacific St At Nw Corner", "URL": "http:\/\/www.mta.info\/nyct\/service\/", "LINE": "2-3-4-5-B-D-N-Q-R" }, "geometry": { "type": "Point", "coordinates": [ -73.978871000364848, 40.683924999704416 ] } },
{ "type": "Feature", "properties": { "NAME": "Ashland Pl & Hanson Pl At Ne Corner", "URL": "http:\/\/www.mta.info\/nyct\/service\/", "LINE": "2-3-4-5-B-D-N-Q-R" }, "geometry": { "type": "Point", "coordinates": [ -73.977747372140868, 40.685154780678737 ] } },
{ "type": "Feature", "properties": { "NAME": "Lawrence St & Willoughby St At Ne Corner", "URL": "http:\/\/www.mta.info\/nyct\/service\/", "LINE": "N-R" }, "geometry": { "type": "Point", "coordinates": [ -73.986190675985895, 40.692356262183949 ] } },
{ "type": "Feature", "properties": { "NAME": "Smith St & President St At Nw Corner", "URL": "http:\/\/www.mta.info\/nyct\/service\/", "LINE": "F-G" }, "geometry": { "type": "Point", "coordinates": [ -73.994392750503465, 40.681116197713258 ] } },
{ "type": "Feature", "properties": { "NAME": "Washington Ave & Eastern Pkwy At Sw Corner", "URL": "http:\/\/www.mta.info\/nyct\/service\/", "LINE": "2-3-4" }, "geometry": { "type": "Point", "coordinates": [ -73.964375335111683, 40.671877589168467 ] } },
{ "type": "Feature", "properties": { "NAME": "Washington Ave & Eastern Pkwy At Nw Corner", "URL": "http:\/\/www.mta.info\/nyct\/service\/", "LINE": "2-3-4" }, "geometry": { "type": "Point", "coordinates": [ -73.964152177716102, 40.67213607295367 ] } },
{ "type": "Feature", "properties": { "NAME": "Franklin Ave & Eastern Pkwy At Se Corner", "URL": "http:\/\/www.mta.info\/nyct\/service\/", "LINE": "2-3-4-5-S" }, "geometry": { "type": "Point", "coordinates": [ -73.957886898598062, 40.670342315957207 ] } },
{ "type": "Feature", "properties": { "NAME": "Franklin Ave & Eastern Pkwy At Ne Corner", "URL": "http:\/\/www.mta.info\/nyct\/service\/", "LINE": "2-3-4-5-S" }, "geometry": { "type": "Point", "coordinates": [ -73.957645596146222, 40.670740697400625 ] } },
{ "type": "Feature", "properties": { "NAME": "Franklin Ave & Fulton St At Sw Corner", "URL": "http:\/\/www.mta.info\/nyct\/service\/", "LINE": "A-C-S" }, "geometry": { "type": "Point", "coordinates": [ -73.955697780198889, 40.681034582896977 ] } },
{ "type": "Feature", "properties": { "NAME": "Franklin Ave & Eastern Pkwy At Ne Corner", "URL": "http:\/\/www.mta.info\/nyct\/service\/", "LINE": "2-3-4-5-S" }, "geometry": { "type": "Point", "coordinates": [ -73.957720318524864, 40.670926291918711 ] } },
{ "type": "Feature", "properties": { "NAME": "Jay St & York St At Sw Corner", "URL": "http:\/\/www.mta.info\/nyct\/service\/", "LINE": "F" }, "geometry": { "type": "Point", "coordinates": [ -73.986653000105676, 40.701321000802899 ] } },
{ "type": "Feature", "properties": { "NAME": "Essex St & Delancey St At Nw Corner", "URL": "http:\/\/www.mta.info\/nyct\/service\/", "LINE": "F-J-M-Z" }, "geometry": { "type": "Point", "coordinates": [ -73.988277857825707, 40.718752740718443 ] } },
{ "type": "Feature", "properties": { "NAME": "Flatbush Ave & De Kalb Ave At Se Corner", "URL": "http:\/\/www.mta.info\/nyct\/service\/", "LINE": "B-D-N-Q-R" }, "geometry": { "type": "Point", "coordinates": [ -73.981360704105029, 40.689864354484975 ] } },
{ "type": "Feature", "properties": { "NAME": "Beach 90th St & Rockaway Frwy At Se Corner", "URL": "http:\/\/www.mta.info\/nyct\/service\/", "LINE": "A-S" }, "geometry": { "type": "Point", "coordinates": [ -73.814010447614365, 40.587728776670779 ] } },
{ "type": "Feature", "properties": { "NAME": "Red Cross Pl & Adams St At Sw Corner", "URL": "http:\/\/www.mta.info\/nyct\/service\/", "LINE": "A-C" }, "geometry": { "type": "Point", "coordinates": [ -73.988912978776895, 40.699161165079822 ] } },
{ "type": "Feature", "properties": { "NAME": "Sands St & Adams St At Se Corner", "URL": "http:\/\/www.mta.info\/nyct\/service\/", "LINE": "A-C" }, "geometry": { "type": "Point", "coordinates": [ -73.988270704821133, 40.699258216346891 ] } },
{ "type": "Feature", "properties": { "NAME": "Court St & Joralemon St At Ne Corner", "URL": "http:\/\/www.mta.info\/nyct\/service\/", "LINE": "2-3-4-5-N-R" }, "geometry": { "type": "Point", "coordinates": [ -73.990602286487743, 40.692604078829575 ] } },
{ "type": "Feature", "properties": { "NAME": "144-01 Hillside Avenue", "URL": "http:\/\/www.mta.info\/nyct\/service\/", "LINE": "F" }, "geometry": { "type": "Point", "coordinates": [ -73.811829001643289, 40.705340000322302 ] } },
{ "type": "Feature", "properties": { "NAME": "1515 Foster Avenue (Enter From Newkirk Ave Pz)", "URL": "http:\/\/www.mta.info\/nyct\/service\/", "LINE": "B-Q" }, "geometry": { "type": "Point", "coordinates": [ -73.962782999806834, 40.635042001368305 ] } },
{ "type": "Feature", "properties": { "NAME": "37-01 36 Street (To Manhattan And Brooklyn Only)", "URL": "http:\/\/www.mta.info\/nyct\/service\/", "LINE": "E-M-R" }, "geometry": { "type": "Point", "coordinates": [ -73.927640999392125, 40.752218999287372 ] } },
{ "type": "Feature", "properties": { "NAME": "4902 12 Avenue", "URL": "http:\/\/www.mta.info\/nyct\/service\/", "LINE": "D" }, "geometry": { "type": "Point", "coordinates": [ -73.994611999744109, 40.636375000167945 ] } },
{ "type": "Feature", "properties": { "NAME": "1 Barclay Street (Enter On Park Place)", "URL": "http:\/\/www.mta.info\/nyct\/service\/", "LINE": "2-3-A-C-E" }, "geometry": { "type": "Point", "coordinates": [ -74.008224000120379, 40.712611998770605 ] } },
{ "type": "Feature", "properties": { "NAME": "486 Clinton Avenue (To Manhattan Only)", "URL": "http:\/\/www.mta.info\/nyct\/service\/", "LINE": "A-C" }, "geometry": { "type": "Point", "coordinates": [ -73.967116017757007, 40.683677105323284 ] } },
{ "type": "Feature", "properties": { "NAME": "1175 Mc Donald Avenue", "URL": "http:\/\/www.mta.info\/nyct\/service\/", "LINE": "F" }, "geometry": { "type": "Point", "coordinates": [ -73.975777195836258, 40.624563864428282 ] } },
{ "type": "Feature", "properties": { "NAME": "135-02 89 Avenue", "URL": "http:\/\/www.mta.info\/nyct\/service\/", "LINE": "E" }, "geometry": { "type": "Point", "coordinates": [ -73.816299035001563, 40.700970545698581 ] } },
{ "type": "Feature", "properties": { "NAME": "40-02 75 Street", "URL": "http:\/\/www.mta.info\/nyct\/service\/", "LINE": "7-E-F-M-R" }, "geometry": { "type": "Point", "coordinates": [ -73.89071415384538, 40.746554727395129 ] } },
{ "type": "Feature", "properties": { "NAME": "1122 Broadway", "URL": "http:\/\/www.mta.info\/nyct\/service\/", "LINE": "J" }, "geometry": { "type": "Point", "coordinates": [ -73.929666998439913, 40.693671999425128 ] } },
{ "type": "Feature", "properties": { "NAME": "729 7 Avenue (Uptown Only)", "URL": "http:\/\/www.mta.info\/nyct\/service\/", "LINE": "N-Q-R" }, "geometry": { "type": "Point", "coordinates": [ -73.983566998167376, 40.760296999388657 ] } },
{ "type": "Feature", "properties": { "NAME": "421 7 Avenue", "URL": "http:\/\/www.mta.info\/nyct\/service\/", "LINE": "1-2-3" }, "geometry": { "type": "Point", "coordinates": [ -73.990650001072638, 40.750283000571379 ] } },
{ "type": "Feature", "properties": { "NAME": "401 7 Avenue", "URL": "http:\/\/www.mta.info\/nyct\/service\/", "LINE": "1-2-3" }, "geometry": { "type": "Point", "coordinates": [ -73.99112999981115, 40.749656000076918 ] } },
{ "type": "Feature", "properties": { "NAME": "502 Broadway", "URL": "http:\/\/www.mta.info\/nyct\/service\/", "LINE": "G" }, "geometry": { "type": "Point", "coordinates": [ -73.950544705400006, 40.70547110609256 ] } },
{ "type": "Feature", "properties": { "NAME": "2 Ann Street", "URL": "http:\/\/www.mta.info\/nyct\/service\/", "LINE": "2-3-4-5-A-C-J-Z" }, "geometry": { "type": "Point", "coordinates": [ -74.008427999644923, 40.710692001157611 ] } },
{ "type": "Feature", "properties": { "NAME": "421 7 Avenue", "URL": "http:\/\/www.mta.info\/nyct\/service\/", "LINE": "1-2-3" }, "geometry": { "type": "Point", "coordinates": [ -73.990853998696821, 40.750313000813613 ] } },
{ "type": "Feature", "properties": { "NAME": "92-20 Jamaica Avenue", "URL": "http:\/\/www.mta.info\/nyct\/service\/", "LINE": "J-Z" }, "geometry": { "type": "Point", "coordinates": [ -73.852439997641412, 40.693431999205238 ] } },
{ "type": "Feature", "properties": { "NAME": "235 Brook Avenue (To Manhattan Only)", "URL": "http:\/\/www.mta.info\/nyct\/service\/", "LINE": "6" }, "geometry": { "type": "Point", "coordinates": [ -73.919314000949157, 40.807767001713586 ] } },
{ "type": "Feature", "properties": { "NAME": "101 Avenue I", "URL": "http:\/\/www.mta.info\/nyct\/service\/", "LINE": "F" }, "geometry": { "type": "Point", "coordinates": [ -73.976037465981449, 40.626144819589747 ] } },
{ "type": "Feature", "properties": { "NAME": "102 Beverly Road", "URL": "http:\/\/www.mta.info\/nyct\/service\/", "LINE": "F" }, "geometry": { "type": "Point", "coordinates": [ -73.979240000290972, 40.642715000331108 ] } },
{ "type": "Feature", "properties": { "NAME": "656 5 Avenue", "URL": "http:\/\/www.mta.info\/nyct\/service\/", "LINE": "E-M" }, "geometry": { "type": "Point", "coordinates": [ -73.976146000970147, 40.760422000787685 ] } },
{ "type": "Feature", "properties": { "NAME": "1490 Fulton Street (To Queens Only)", "URL": "http:\/\/www.mta.info\/nyct\/service\/", "LINE": "A-C" }, "geometry": { "type": "Point", "coordinates": [ -73.941358963171794, 40.67977756234481 ] } },
{ "type": "Feature", "properties": { "NAME": "311 7 Avenue (Uptown Only)", "URL": "http:\/\/www.mta.info\/nyct\/service\/", "LINE": "1-2" }, "geometry": { "type": "Point", "coordinates": [ -73.993137998928219, 40.74703600042934 ] } },
{ "type": "Feature", "properties": { "NAME": "Nassau Pl & Averill Pl At Sw Corner", "URL": "http:\/\/www.mta.info\/nyct\/service\/", "LINE": "@" }, "geometry": { "type": "Point", "coordinates": [ -74.239006801807548, 40.517832360436472 ] } },
{ "type": "Feature", "properties": { "NAME": "75 Richmond Terrace", "URL": "http:\/\/www.mta.info\/nyct\/service\/", "LINE": "@" }, "geometry": { "type": "Point", "coordinates": [ -74.07671914904833, 40.644724546248931 ] } },
{ "type": "Feature", "properties": { "NAME": "295 Broadway (To Manhattan Only)", "URL": "http:\/\/www.mta.info\/nyct\/service\/", "LINE": "J-M-Z" }, "geometry": { "type": "Point", "coordinates": [ -73.958009998706302, 40.70858900012302 ] } },
{ "type": "Feature", "properties": { "NAME": "166 6 Avenue", "URL": "http:\/\/www.mta.info\/nyct\/service\/", "LINE": "A-C-E" }, "geometry": { "type": "Point", "coordinates": [ -74.003747001772922, 40.725583001793453 ] } },
{ "type": "Feature", "properties": { "NAME": "701 Seneca Avenue", "URL": "http:\/\/www.mta.info\/nyct\/service\/", "LINE": "M" }, "geometry": { "type": "Point", "coordinates": [ -73.90748100011858, 40.702835998743687 ] } },
{ "type": "Feature", "properties": { "NAME": "82-01 Roosevelt Avenue", "URL": "http:\/\/www.mta.info\/nyct\/service\/", "LINE": "7" }, "geometry": { "type": "Point", "coordinates": [ -73.883828998203583, 40.747817000874875 ] } },
{ "type": "Feature", "properties": { "NAME": "47 Pine Street", "URL": "http:\/\/www.mta.info\/nyct\/service\/", "LINE": "2-3" }, "geometry": { "type": "Point", "coordinates": [ -74.008878818523868, 40.706799620911383 ] } },
{ "type": "Feature", "properties": { "NAME": "1025 Longwood Avenue (To Manhattan Only)", "URL": "http:\/\/www.mta.info\/nyct\/service\/", "LINE": "6" }, "geometry": { "type": "Point", "coordinates": [ -73.896234001435687, 40.816552999007229 ] } },
{ "type": "Feature", "properties": { "NAME": "573 Lafayette Avenue", "URL": "http:\/\/www.mta.info\/nyct\/service\/", "LINE": "G" }, "geometry": { "type": "Point", "coordinates": [ -73.951654403462626, 40.690024692763203 ] } },
{ "type": "Feature", "properties": { "NAME": "180 Central Park West", "URL": "http:\/\/www.mta.info\/nyct\/service\/", "LINE": "A-C-B" }, "geometry": { "type": "Point", "coordinates": [ -73.972918001364363, 40.780894999082975 ] } },
{ "type": "Feature", "properties": { "NAME": "4761 Broadway", "URL": "http:\/\/www.mta.info\/nyct\/service\/", "LINE": "A" }, "geometry": { "type": "Point", "coordinates": [ -73.927266000472088, 40.865757999867107 ] } },
{ "type": "Feature", "properties": { "NAME": "39-16 111 Street", "URL": "http:\/\/www.mta.info\/nyct\/service\/", "LINE": "7" }, "geometry": { "type": "Point", "coordinates": [ -73.856017000450649, 40.751697998721397 ] } },
{ "type": "Feature", "properties": { "NAME": "418 Broadway", "URL": "http:\/\/www.mta.info\/nyct\/service\/", "LINE": "4-6-6 Express-J-Z-N-Q-R" }, "geometry": { "type": "Point", "coordinates": [ -74.001616999998163, 40.71947099920127 ] } },
{ "type": "Feature", "properties": { "NAME": "462 Flatbush Avenue (Enter From Lincoln Rd)", "URL": "http:\/\/www.mta.info\/nyct\/service\/", "LINE": "B-Q-S" }, "geometry": { "type": "Point", "coordinates": [ -73.962048958283333, 40.660858368638976 ] } },
{ "type": "Feature", "properties": { "NAME": "956 8 Avenue", "URL": "http:\/\/www.mta.info\/nyct\/service\/", "LINE": "1-2-A-C-B-D" }, "geometry": { "type": "Point", "coordinates": [ -73.982815000848106, 40.766451999165938 ] } },
{ "type": "Feature", "properties": { "NAME": "1720 Broadway", "URL": "http:\/\/www.mta.info\/nyct\/service\/", "LINE": "J-Z" }, "geometry": { "type": "Point", "coordinates": [ -73.911274001164116, 40.683180999667165 ] } },
{ "type": "Feature", "properties": { "NAME": "856 Fulton Street (To Queens Only)", "URL": "http:\/\/www.mta.info\/nyct\/service\/", "LINE": "A-C" }, "geometry": { "type": "Point", "coordinates": [ -73.96709508202683, 40.683388256483852 ] } },
{ "type": "Feature", "properties": { "NAME": "42-01 28 Street", "URL": "http:\/\/www.mta.info\/nyct\/service\/", "LINE": "E-M-R" }, "geometry": { "type": "Point", "coordinates": [ -73.937979000505408, 40.749142998819039 ] } },
{ "type": "Feature", "properties": { "NAME": "2154 Fulton Street", "URL": "http:\/\/www.mta.info\/nyct\/service\/", "LINE": "A-C" }, "geometry": { "type": "Point", "coordinates": [ -73.910634001201586, 40.67805400160352 ] } },
{ "type": "Feature", "properties": { "NAME": "1 Centre Street", "URL": "http:\/\/www.mta.info\/nyct\/service\/", "LINE": "4-5-6-6 Express-J-Z" }, "geometry": { "type": "Point", "coordinates": [ -74.004099001784539, 40.712699001273286 ] } },
{ "type": "Feature", "properties": { "NAME": "626 Manhattan Avenue", "URL": "http:\/\/www.mta.info\/nyct\/service\/", "LINE": "G" }, "geometry": { "type": "Point", "coordinates": [ -73.950592001028866, 40.723714998925203 ] } },
{ "type": "Feature", "properties": { "NAME": "344 Classon Avenue", "URL": "http:\/\/www.mta.info\/nyct\/service\/", "LINE": "G" }, "geometry": { "type": "Point", "coordinates": [ -73.96014953442193, 40.688762899991097 ] } },
{ "type": "Feature", "properties": { "NAME": "40-33 21 Street", "URL": "http:\/\/www.mta.info\/nyct\/service\/", "LINE": "F" }, "geometry": { "type": "Point", "coordinates": [ -73.942132000919628, 40.754068999042786 ] } },
{ "type": "Feature", "properties": { "NAME": "1824 Broadway", "URL": "http:\/\/www.mta.info\/nyct\/service\/", "LINE": "1-2-A-C-B-D" }, "geometry": { "type": "Point", "coordinates": [ -73.981717001206221, 40.768700999191445 ] } },
{ "type": "Feature", "properties": { "NAME": "602 Marcy Avenue", "URL": "http:\/\/www.mta.info\/nyct\/service\/", "LINE": "G" }, "geometry": { "type": "Point", "coordinates": [ -73.949080000754279, 40.693978998656036 ] } },
{ "type": "Feature", "properties": { "NAME": "131 East 60 Street", "URL": "http:\/\/www.mta.info\/nyct\/service\/", "LINE": "4-5-6-6 Express-N-Q-R" }, "geometry": { "type": "Point", "coordinates": [ -73.9676369986324, 40.762640998883334 ] } },
{ "type": "Feature", "properties": { "NAME": "2137 Nostrand Avenue", "URL": "http:\/\/www.mta.info\/nyct\/service\/", "LINE": "2-5" }, "geometry": { "type": "Point", "coordinates": [ -73.947506333768985, 40.633034284025427 ] } },
{ "type": "Feature", "properties": { "NAME": "70 6 Avenue (To Manhattan Only)", "URL": "http:\/\/www.mta.info\/nyct\/service\/", "LINE": "2-3-4" }, "geometry": { "type": "Point", "coordinates": [ -73.974762999077171, 40.680675001002648 ] } },
{ "type": "Feature", "properties": { "NAME": "Nostrand Ave & Flatbush Ave At Nw Corner", "URL": "http:\/\/www.mta.info\/nyct\/service\/", "LINE": "2-5" }, "geometry": { "type": "Point", "coordinates": [ -73.947928001328734, 40.633251000513738 ] } },
{ "type": "Feature", "properties": { "NAME": "Nostrand Ave & Flatbush Ave At Ne Corner", "URL": "http:\/\/www.mta.info\/nyct\/service\/", "LINE": "2-5" }, "geometry": { "type": "Point", "coordinates": [ -73.947506000664887, 40.632858000067515 ] } },
{ "type": "Feature", "properties": { "NAME": "Nostrand Ave & Church Ave At Se Corner (To Manhattan Only)", "URL": "http:\/\/www.mta.info\/nyct\/service\/", "LINE": "2-5" }, "geometry": { "type": "Point", "coordinates": [ -73.949416001981191, 40.650663000454976 ] } },
{ "type": "Feature", "properties": { "NAME": "Nostrand Ave & President St At Ne Corner", "URL": "http:\/\/www.mta.info\/nyct\/service\/", "LINE": "2-5" }, "geometry": { "type": "Point", "coordinates": [ -73.95047399897777, 40.668128001255006 ] } },
{ "type": "Feature", "properties": { "NAME": "Nostrand Ave & Eastern Pkwy At Se Corner", "URL": "http:\/\/www.mta.info\/nyct\/service\/", "LINE": "3-4" }, "geometry": { "type": "Point", "coordinates": [ -73.950388999569952, 40.669803999887165 ] } },
{ "type": "Feature", "properties": { "NAME": "Marcy Ave & Myrtle Ave At Nw Corner", "URL": "http:\/\/www.mta.info\/nyct\/service\/", "LINE": "G" }, "geometry": { "type": "Point", "coordinates": [ -73.949422999793001, 40.695438999099494 ] } },
{ "type": "Feature", "properties": { "NAME": "Schenectady Ave & Eastern Pkwy At Ne Corner", "URL": "http:\/\/www.mta.info\/nyct\/service\/", "LINE": "3-4" }, "geometry": { "type": "Point", "coordinates": [ -73.933788997862365, 40.669026998712177 ] } },
{ "type": "Feature", "properties": { "NAME": "Utica Ave & Eastern Pkwy At Se Corner", "URL": "http:\/\/www.mta.info\/nyct\/service\/", "LINE": "3-4" }, "geometry": { "type": "Point", "coordinates": [ -73.931028842585206, 40.668680136273643 ] } },
{ "type": "Feature", "properties": { "NAME": "Broadway & Myrtle Ave At Nw Corner", "URL": "http:\/\/www.mta.info\/nyct\/service\/", "LINE": "J-Z" }, "geometry": { "type": "Point", "coordinates": [ -73.935452578186812, 40.696851600758094 ] } },
{ "type": "Feature", "properties": { "NAME": "Bedford Ave & N 7th St At Se Corner", "URL": "http:\/\/www.mta.info\/nyct\/service\/", "LINE": "L" }, "geometry": { "type": "Point", "coordinates": [ -73.957687000086224, 40.71771900031753 ] } },
{ "type": "Feature", "properties": { "NAME": "Union Ave & Flushing Ave At Ne Corner (To Queens Only)", "URL": "http:\/\/www.mta.info\/nyct\/service\/", "LINE": "G" }, "geometry": { "type": "Point", "coordinates": [ -73.949913000243754, 40.699965998695937 ] } },
{ "type": "Feature", "properties": { "NAME": "Hewes St & Broadway At Ne Corner", "URL": "http:\/\/www.mta.info\/nyct\/service\/", "LINE": "J-M" }, "geometry": { "type": "Point", "coordinates": [ -73.952343999144787, 40.706626998957027 ] } },
{ "type": "Feature", "properties": { "NAME": "Union Ave & Metropolitan Ave At Se Corner", "URL": "http:\/\/www.mta.info\/nyct\/service\/", "LINE": "G-L" }, "geometry": { "type": "Point", "coordinates": [ -73.951444998281431, 40.713768000638055 ] } },
{ "type": "Feature", "properties": { "NAME": "Lorimer St & Broadway At Sw Corner", "URL": "http:\/\/www.mta.info\/nyct\/service\/", "LINE": "J-M" }, "geometry": { "type": "Point", "coordinates": [ -73.946687999661947, 40.703313000872221 ] } },
{ "type": "Feature", "properties": { "NAME": "Flushing Ave & Broadway At Se Corner", "URL": "http:\/\/www.mta.info\/nyct\/service\/", "LINE": "J-M" }, "geometry": { "type": "Point", "coordinates": [ -73.942235147681728, 40.700594897340928 ] } },
{ "type": "Feature", "properties": { "NAME": "Manhattan Ave & Norman Ave At Nw Corner", "URL": "http:\/\/www.mta.info\/nyct\/service\/", "LINE": "G" }, "geometry": { "type": "Point", "coordinates": [ -73.951905999746387, 40.725477999628424 ] } },
{ "type": "Feature", "properties": { "NAME": "Manhattan Ave & Nassau Ave At Nw Corner", "URL": "http:\/\/www.mta.info\/nyct\/service\/", "LINE": "G" }, "geometry": { "type": "Point", "coordinates": [ -73.950928002175957, 40.723809998796064 ] } },
{ "type": "Feature", "properties": { "NAME": "Graham Ave & Metropolitan Ave At Se Corner (To Canarsie Only)", "URL": "http:\/\/www.mta.info\/nyct\/service\/", "LINE": "L" }, "geometry": { "type": "Point", "coordinates": [ -73.944248000288709, 40.714449000898433 ] } },
{ "type": "Feature", "properties": { "NAME": "Grand St & Bushwick Ave At Ne Corner (To Canarsie Only)", "URL": "http:\/\/www.mta.info\/nyct\/service\/", "LINE": "L" }, "geometry": { "type": "Point", "coordinates": [ -73.940892000261897, 40.712034999470767 ] } },
{ "type": "Feature", "properties": { "NAME": "Morgan Ave & Harrison Pl At Sw Corner", "URL": "http:\/\/www.mta.info\/nyct\/service\/", "LINE": "L" }, "geometry": { "type": "Point", "coordinates": [ -73.931988999907446, 40.706234001279945 ] } },
{ "type": "Feature", "properties": { "NAME": "Manhattan Ave & India St At Se Corner", "URL": "http:\/\/www.mta.info\/nyct\/service\/", "LINE": "G" }, "geometry": { "type": "Point", "coordinates": [ -73.954414999023911, 40.732270000568448 ] } },
{ "type": "Feature", "properties": { "NAME": "Rutland Rd & E. 98th St At Ne Corner", "URL": "http:\/\/www.mta.info\/nyct\/service\/", "LINE": "3-4" }, "geometry": { "type": "Point", "coordinates": [ -73.922663001857472, 40.664932000249131 ] } },
{ "type": "Feature", "properties": { "NAME": "Saratoga Ave & Livonia Ave At Ne Corner", "URL": "http:\/\/www.mta.info\/nyct\/service\/", "LINE": "3-4" }, "geometry": { "type": "Point", "coordinates": [ -73.915344998627674, 40.661675000188019 ] } },
{ "type": "Feature", "properties": { "NAME": "Glenwood Rd & Rockaway Pkwy At Nw Corner", "URL": "http:\/\/www.mta.info\/nyct\/service\/", "LINE": "L" }, "geometry": { "type": "Point", "coordinates": [ -73.902498001775896, 40.645545000281373 ] } },
{ "type": "Feature", "properties": { "NAME": "Ralph Ave & Fulton St At Se Corner", "URL": "http:\/\/www.mta.info\/nyct\/service\/", "LINE": "A-C" }, "geometry": { "type": "Point", "coordinates": [ -73.921516930364291, 40.678713963422297 ] } },
{ "type": "Feature", "properties": { "NAME": "Hopkinson Ave & Fulton St At Nw Corner", "URL": "http:\/\/www.mta.info\/nyct\/service\/", "LINE": "A-C" }, "geometry": { "type": "Point", "coordinates": [ -73.913768683482829, 40.678592291020884 ] } },
{ "type": "Feature", "properties": { "NAME": "Palmetto St & Broadway At Sw Corner", "URL": "http:\/\/www.mta.info\/nyct\/service\/", "LINE": "J-Z" }, "geometry": { "type": "Point", "coordinates": [ -73.921565000306316, 40.689067998328674 ] } },
{ "type": "Feature", "properties": { "NAME": "Jefferson Ave & Broadway At Ne Corner", "URL": "http:\/\/www.mta.info\/nyct\/service\/", "LINE": "J" }, "geometry": { "type": "Point", "coordinates": [ -73.917295000425611, 40.686932999374129 ] } },
{ "type": "Feature", "properties": { "NAME": "Linden St & Broadway At Nw Corner", "URL": "http:\/\/www.mta.info\/nyct\/service\/", "LINE": "J-Z" }, "geometry": { "type": "Point", "coordinates": [ -73.922948000700231, 40.690140999089444 ] } },
{ "type": "Feature", "properties": { "NAME": "Snediker Ave & New York Ave At Sw Corner", "URL": "http:\/\/www.mta.info\/nyct\/service\/", "LINE": "L" }, "geometry": { "type": "Point", "coordinates": [ -73.90280546750266, 40.675697692947992 ] } },
{ "type": "Feature", "properties": { "NAME": "Alabama Av & Fulton St At Se Corner", "URL": "http:\/\/www.mta.info\/nyct\/service\/", "LINE": "J" }, "geometry": { "type": "Point", "coordinates": [ -73.899585999601925, 40.676769000186063 ] } },
{ "type": "Feature", "properties": { "NAME": "Pennsylvania Ave & Liberty Ave At Sw Corner", "URL": "http:\/\/www.mta.info\/nyct\/service\/", "LINE": "A-C" }, "geometry": { "type": "Point", "coordinates": [ -73.896668999925467, 40.67423899894689 ] } },
{ "type": "Feature", "properties": { "NAME": "Lirr Bay Ridge Divide & Wilson Ave At Nw Corner", "URL": "http:\/\/www.mta.info\/nyct\/service\/", "LINE": "L" }, "geometry": { "type": "Point", "coordinates": [ -73.90467903920927, 40.688787265504295 ] } },
{ "type": "Feature", "properties": { "NAME": "Van Siclen Ave & Pitkin Ave At Se Corner", "URL": "http:\/\/www.mta.info\/nyct\/service\/", "LINE": "A-C" }, "geometry": { "type": "Point", "coordinates": [ -73.890153000831262, 40.672506000837899 ] } },
{ "type": "Feature", "properties": { "NAME": "Ashford St & Livonia Av At Sw Corner", "URL": "http:\/\/www.mta.info\/nyct\/service\/", "LINE": "3-4" }, "geometry": { "type": "Point", "coordinates": [ -73.883289997339659, 40.666280998971274 ] } },
{ "type": "Feature", "properties": { "NAME": "Shepherd Ave & Pitkin Ave At Se Corner", "URL": "http:\/\/www.mta.info\/nyct\/service\/", "LINE": "A-C" }, "geometry": { "type": "Point", "coordinates": [ -73.880664997707314, 40.674000998622553 ] } },
{ "type": "Feature", "properties": { "NAME": "Euclid Ave & Pitkin Ave At Sw Corner", "URL": "http:\/\/www.mta.info\/nyct\/service\/", "LINE": "A-C-S" }, "geometry": { "type": "Point", "coordinates": [ -73.872086998330659, 40.675267999146961 ] } },
{ "type": "Feature", "properties": { "NAME": "Euclid Ave & Pitkin Ave At Nw Corner", "URL": "http:\/\/www.mta.info\/nyct\/service\/", "LINE": "A-C-S" }, "geometry": { "type": "Point", "coordinates": [ -73.872085999048679, 40.675488000703233 ] } },
{ "type": "Feature", "properties": { "NAME": "Starr St & Wyckoff Ave At Se Corner", "URL": "http:\/\/www.mta.info\/nyct\/service\/", "LINE": "L" }, "geometry": { "type": "Point", "coordinates": [ -73.922119000460228, 40.70601400050468 ] } },
{ "type": "Feature", "properties": { "NAME": "Dekalb Ave & Wycoff Ave At Se Corner", "URL": "http:\/\/www.mta.info\/nyct\/service\/", "LINE": "L" }, "geometry": { "type": "Point", "coordinates": [ -73.919273000072408, 40.704152998784096 ] } },
{ "type": "Feature", "properties": { "NAME": "Stanhope St & Wycoff Ave At Sw Corner", "URL": "http:\/\/www.mta.info\/nyct\/service\/", "LINE": "L" }, "geometry": { "type": "Point", "coordinates": [ -73.917958999461305, 40.703341998439832 ] } },
{ "type": "Feature", "properties": { "NAME": "Stanhope St & Wycoff Ave At Ne Corner", "URL": "http:\/\/www.mta.info\/nyct\/service\/", "LINE": "L" }, "geometry": { "type": "Point", "coordinates": [ -73.91760600034992, 40.703460998960296 ] } },
{ "type": "Feature", "properties": { "NAME": "Jefferson St & Wyckoff Ave At Nw Corner", "URL": "http:\/\/www.mta.info\/nyct\/service\/", "LINE": "L" }, "geometry": { "type": "Point", "coordinates": [ -73.9237230019191, 40.707242000854087 ] } },
{ "type": "Feature", "properties": { "NAME": "Starr St & Wyckoff Ave At Ne Corner", "URL": "http:\/\/www.mta.info\/nyct\/service\/", "LINE": "L" }, "geometry": { "type": "Point", "coordinates": [ -73.921930998345857, 40.706216000224927 ] } },
{ "type": "Feature", "properties": { "NAME": "Forest Ave & Myrtle Ave At Nw Corner", "URL": "http:\/\/www.mta.info\/nyct\/service\/", "LINE": "M" }, "geometry": { "type": "Point", "coordinates": [ -73.902208000821432, 40.70481599889446 ] } },
{ "type": "Feature", "properties": { "NAME": "62nd St & 67th Ave At Se Corner", "URL": "http:\/\/www.mta.info\/nyct\/service\/", "LINE": "M" }, "geometry": { "type": "Point", "coordinates": [ -73.895559099893461, 40.706115047870448 ] } },
{ "type": "Feature", "properties": { "NAME": "Britton Ave & Broadway At Nw Corner", "URL": "http:\/\/www.mta.info\/nyct\/service\/", "LINE": "E-M-R" }, "geometry": { "type": "Point", "coordinates": [ -73.882700999698415, 40.742945000753743 ] } },
{ "type": "Feature", "properties": { "NAME": "126th St & Roosevelt Ave At Nw Corner", "URL": "http:\/\/www.mta.info\/nyct\/service\/", "LINE": "7-7 Express" }, "geometry": { "type": "Point", "coordinates": [ -73.845800394226771, 40.754827563131663 ] } },
{ "type": "Feature", "properties": { "NAME": "126th St & Roosevelt Ave At Sw Corner", "URL": "http:\/\/www.mta.info\/nyct\/service\/", "LINE": "7-7 Express" }, "geometry": { "type": "Point", "coordinates": [ -73.846013793392089, 40.75423664964741 ] } },
{ "type": "Feature", "properties": { "NAME": "64th Rd & Queens Blvd At Nw Corner", "URL": "http:\/\/www.mta.info\/nyct\/service\/", "LINE": "E-M-R" }, "geometry": { "type": "Point", "coordinates": [ -73.859553728756524, 40.729324911396255 ] } },
{ "type": "Feature", "properties": { "NAME": "75th St & Jamaica At Nw Corner", "URL": "http:\/\/www.mta.info\/nyct\/service\/", "LINE": "J-Z" }, "geometry": { "type": "Point", "coordinates": [ -73.866595435880981, 40.691471110068065 ] } },
{ "type": "Feature", "properties": { "NAME": "104th St & Jamaica Ave At Ne Corner", "URL": "http:\/\/www.mta.info\/nyct\/service\/", "LINE": "J-Z" }, "geometry": { "type": "Point", "coordinates": [ -73.843295429253857, 40.695268295746743 ] } },
{ "type": "Feature", "properties": { "NAME": "Van Wyck Expwy & 89th Ave At Sw Corner", "URL": "http:\/\/www.mta.info\/nyct\/service\/", "LINE": "E" }, "geometry": { "type": "Point", "coordinates": [ -73.816413384920693, 40.701204113571741 ] } },
{ "type": "Feature", "properties": { "NAME": "Flushing Ave & Broadway At Se Corner", "URL": "http:\/\/www.mta.info\/nyct\/service\/", "LINE": "J-M" }, "geometry": { "type": "Point", "coordinates": [ -73.941995019855781, 40.700629270280935 ] } },
{ "type": "Feature", "properties": { "NAME": "Halsey St & Wycoff Ave At Sw Corner (To Canarsie Only)", "URL": "http:\/\/www.mta.info\/nyct\/service\/", "LINE": "L" }, "geometry": { "type": "Point", "coordinates": [ -73.905264313605912, 40.695712238725555 ] } },
{ "type": "Feature", "properties": { "NAME": "Utica Ave & Fulton St At Nw Corner", "URL": "http:\/\/www.mta.info\/nyct\/service\/", "LINE": "A-C" }, "geometry": { "type": "Point", "coordinates": [ -73.929725489232993, 40.67948676649214 ] } },
{ "type": "Feature", "properties": { "NAME": "Washington Ave & Lafayette Ave At Ne Corner", "URL": "http:\/\/www.mta.info\/nyct\/service\/", "LINE": "G" }, "geometry": { "type": "Point", "coordinates": [ -73.965670011168143, 40.688357791905304 ] } },
{ "type": "Feature", "properties": { "NAME": "Clinton Ave & Lafayette Ave At Sw Corner", "URL": "http:\/\/www.mta.info\/nyct\/service\/", "LINE": "G" }, "geometry": { "type": "Point", "coordinates": [ -73.967886131387587, 40.687833179043118 ] } },
{ "type": "Feature", "properties": { "NAME": "Bedford Ave & Lafayette Ave At Se Corner", "URL": "http:\/\/www.mta.info\/nyct\/service\/", "LINE": "G" }, "geometry": { "type": "Point", "coordinates": [ -73.9549690414336, 40.689330630520921 ] } },
{ "type": "Feature", "properties": { "NAME": "Bedford Ave & Lafayette Ave At Nw Corner", "URL": "http:\/\/www.mta.info\/nyct\/service\/", "LINE": "G" }, "geometry": { "type": "Point", "coordinates": [ -73.95528961395739, 40.689552695502897 ] } },
{ "type": "Feature", "properties": { "NAME": "Utica Ave & Eastern Pkwy At Se Corner", "URL": "http:\/\/www.mta.info\/nyct\/service\/", "LINE": "3-4" }, "geometry": { "type": "Point", "coordinates": [ -73.930722821602131, 40.668664367757891 ] } },
{ "type": "Feature", "properties": { "NAME": "St. Pauls Pl & Caton Ave At Se Corner", "URL": "http:\/\/www.mta.info\/nyct\/service\/", "LINE": "B-Q" }, "geometry": { "type": "Point", "coordinates": [ -73.962839959458108, 40.651457748430524 ] } },
{ "type": "Feature", "properties": { "NAME": "8th St & Surf Ave At Nw Corner", "URL": "http:\/\/www.mta.info\/nyct\/service\/", "LINE": "F-Q" }, "geometry": { "type": "Point", "coordinates": [ -73.976998695865461, 40.575498515311907 ] } },
{ "type": "Feature", "properties": { "NAME": "4th Ave & 10th St At Nw Corner", "URL": "http:\/\/www.mta.info\/nyct\/service\/", "LINE": "D-F-G-N-R" }, "geometry": { "type": "Point", "coordinates": [ -73.98947403268636, 40.669850375032723 ] } },
{ "type": "Feature", "properties": { "NAME": "Mcdonald Ave & Avenue J At Nw Corner", "URL": "http:\/\/www.mta.info\/nyct\/service\/", "LINE": "F" }, "geometry": { "type": "Point", "coordinates": [ -73.976156608058261, 40.624527808091003 ] } },
{ "type": "Feature", "properties": { "NAME": "Main St & Utah St At Nw Corner", "URL": "http:\/\/www.mta.info\/nyct\/service\/", "LINE": "@" }, "geometry": { "type": "Point", "coordinates": [ -74.250966836149658, 40.513215294729974 ] } },
{ "type": "Feature", "properties": { "NAME": "Tracy Av & Arthur Kill Rd At Nw Corner", "URL": "http:\/\/www.mta.info\/nyct\/service\/", "LINE": "@" }, "geometry": { "type": "Point", "coordinates": [ -74.245432689186117, 40.515388342351685 ] } },
{ "type": "Feature", "properties": { "NAME": "90th St & Roosevelt Ave At Nw Corner", "URL": "http:\/\/www.mta.info\/nyct\/service\/", "LINE": "7" }, "geometry": { "type": "Point", "coordinates": [ -73.876575998420648, 40.748546998731143 ] } },
{ "type": "Feature", "properties": { "NAME": "Woodhaven Blvd & Queens Blvd At Sw Corner", "URL": "http:\/\/www.mta.info\/nyct\/service\/", "LINE": "E-M-R" }, "geometry": { "type": "Point", "coordinates": [ -73.870973001050601, 40.733329998414717 ] } },
{ "type": "Feature", "properties": { "NAME": "Horace Harding Expwy & Queens Blvd At Ne Corner", "URL": "http:\/\/www.mta.info\/nyct\/service\/", "LINE": "E-M-R" }, "geometry": { "type": "Point", "coordinates": [ -73.868732998790847, 40.733212999767929 ] } },
{ "type": "Feature", "properties": { "NAME": "103rd St & Roosevelt Ave At Se Corner", "URL": "http:\/\/www.mta.info\/nyct\/service\/", "LINE": "7" }, "geometry": { "type": "Point", "coordinates": [ -73.862303000052378, 40.749777000168841 ] } },
{ "type": "Feature", "properties": { "NAME": "67th Ave & Queens Blvd At Se Corner", "URL": "http:\/\/www.mta.info\/nyct\/service\/", "LINE": "E-M-R" }, "geometry": { "type": "Point", "coordinates": [ -73.853492000438322, 40.726595000883776 ] } },
{ "type": "Feature", "properties": { "NAME": "71st & Queens Blvd At Ne Corner", "URL": "http:\/\/www.mta.info\/nyct\/service\/", "LINE": "E-F-M-R" }, "geometry": { "type": "Point", "coordinates": [ -73.843382000020753, 40.721496000481991 ] } },
{ "type": "Feature", "properties": { "NAME": "Union Tpke & Queens Blvd At Se Corner", "URL": "http:\/\/www.mta.info\/nyct\/service\/", "LINE": "E-F" }, "geometry": { "type": "Point", "coordinates": [ -73.831327998004284, 40.713970000580844 ] } },
{ "type": "Feature", "properties": { "NAME": "75th & Queens Blvd At Nw Corner (To Manhattan And Brooklyn Only)", "URL": "http:\/\/www.mta.info\/nyct\/service\/", "LINE": "E-F" }, "geometry": { "type": "Point", "coordinates": [ -73.83798439749728, 40.719023196075206 ] } },
{ "type": "Feature", "properties": { "NAME": "Union Tpke & Queens Blvd At Nw Corner", "URL": "http:\/\/www.mta.info\/nyct\/service\/", "LINE": "E-F" }, "geometry": { "type": "Point", "coordinates": [ -73.831485001284634, 40.714928000110092 ] } },
{ "type": "Feature", "properties": { "NAME": "Main St & Roosevelt Ave At Se Corner", "URL": "http:\/\/www.mta.info\/nyct\/service\/", "LINE": "7-7 Express" }, "geometry": { "type": "Point", "coordinates": [ -73.829909999392711, 40.759389999138243 ] } },
{ "type": "Feature", "properties": { "NAME": "Main St & Roosevelt Ave At Ne Corner", "URL": "http:\/\/www.mta.info\/nyct\/service\/", "LINE": "7-7 Express" }, "geometry": { "type": "Point", "coordinates": [ -73.82996199961309, 40.759709999067205 ] } },
{ "type": "Feature", "properties": { "NAME": "Van Wyck Blvd & Queens Blvd At Sw Corner (To Jamaica Only)", "URL": "http:\/\/www.mta.info\/nyct\/service\/", "LINE": "E-F" }, "geometry": { "type": "Point", "coordinates": [ -73.820100001096989, 40.708091999203475 ] } },
{ "type": "Feature", "properties": { "NAME": "Van Wyck Expwy & Jamaica Ave At Nw Corner", "URL": "http:\/\/www.mta.info\/nyct\/service\/", "LINE": "E" }, "geometry": { "type": "Point", "coordinates": [ -73.817190999969696, 40.702660999606387 ] } },
{ "type": "Feature", "properties": { "NAME": "Sutphin Blvd & Archer Ave At Nw Corner", "URL": "http:\/\/www.mta.info\/nyct\/service\/", "LINE": "E-J-Z" }, "geometry": { "type": "Point", "coordinates": [ -73.807894001501197, 40.700768000814186 ] } },
{ "type": "Feature", "properties": { "NAME": "Sutphin Blvd & Hillside Ave At Se Corner", "URL": "http:\/\/www.mta.info\/nyct\/service\/", "LINE": "F" }, "geometry": { "type": "Point", "coordinates": [ -73.809490999425108, 40.705650000586715 ] } },
{ "type": "Feature", "properties": { "NAME": "153rd St & Hillside Ave At Sw Corner", "URL": "http:\/\/www.mta.info\/nyct\/service\/", "LINE": "F" }, "geometry": { "type": "Point", "coordinates": [ -73.804491001366699, 40.707091000457574 ] } },
{ "type": "Feature", "properties": { "NAME": "Parsons Blvd & Hillside Ave At Sw Corner", "URL": "http:\/\/www.mta.info\/nyct\/service\/", "LINE": "F" }, "geometry": { "type": "Point", "coordinates": [ -73.802795998146152, 40.707554999917726 ] } },
{ "type": "Feature", "properties": { "NAME": "168th St & Hillside Ave At Nw Corner", "URL": "http:\/\/www.mta.info\/nyct\/service\/", "LINE": "F" }, "geometry": { "type": "Point", "coordinates": [ -73.794914998714646, 40.710146999353398 ] } },
{ "type": "Feature", "properties": { "NAME": "169th St & Hillside Ave At Nw Corner", "URL": "http:\/\/www.mta.info\/nyct\/service\/", "LINE": "F" }, "geometry": { "type": "Point", "coordinates": [ -73.793212998434697, 40.710820998780399 ] } },
{ "type": "Feature", "properties": { "NAME": "169th St & Hillside Ave At Ne Corner", "URL": "http:\/\/www.mta.info\/nyct\/service\/", "LINE": "F" }, "geometry": { "type": "Point", "coordinates": [ -73.792947997148104, 40.710946998707122 ] } },
{ "type": "Feature", "properties": { "NAME": "179th St & Hillside Ave At Sw Corner", "URL": "http:\/\/www.mta.info\/nyct\/service\/", "LINE": "F" }, "geometry": { "type": "Point", "coordinates": [ -73.784501001047687, 40.712335000926096 ] } },
{ "type": "Feature", "properties": { "NAME": "179th St & Hillside Ave At Se Corner", "URL": "http:\/\/www.mta.info\/nyct\/service\/", "LINE": "F" }, "geometry": { "type": "Point", "coordinates": [ -73.784303999050636, 40.712399998648358 ] } },
{ "type": "Feature", "properties": { "NAME": "180th St & Hillside Ave At Nw Corner", "URL": "http:\/\/www.mta.info\/nyct\/service\/", "LINE": "F" }, "geometry": { "type": "Point", "coordinates": [ -73.783314000092858, 40.712907999252039 ] } },
{ "type": "Feature", "properties": { "NAME": "180th St & Hillside Ave At Sw Corner", "URL": "http:\/\/www.mta.info\/nyct\/service\/", "LINE": "F" }, "geometry": { "type": "Point", "coordinates": [ -73.782652001635057, 40.712775999730844 ] } },
{ "type": "Feature", "properties": { "NAME": "Beach 22nd St & Mott Ave At Sw Corner", "URL": "http:\/\/www.mta.info\/nyct\/service\/", "LINE": "A" }, "geometry": { "type": "Point", "coordinates": [ -73.754172820045497, 40.604740444413039 ] } },
{ "type": "Feature", "properties": { "NAME": "Beach 106th St & Rockaway Frwy At Nw Corner", "URL": "http:\/\/www.mta.info\/nyct\/service\/", "LINE": "A-S" }, "geometry": { "type": "Point", "coordinates": [ -73.82757700011247, 40.58308499878585 ] } },
{ "type": "Feature", "properties": { "NAME": "Beach 106th St & Rockaway Frwy At Nw Corner", "URL": "http:\/\/www.mta.info\/nyct\/service\/", "LINE": "A-S" }, "geometry": { "type": "Point", "coordinates": [ -73.82716600112515, 40.583491000845974 ] } },
{ "type": "Feature", "properties": { "NAME": "Beach 98th St & Rockaway Frwy At Nw Corner", "URL": "http:\/\/www.mta.info\/nyct\/service\/", "LINE": "A-S" }, "geometry": { "type": "Point", "coordinates": [ -73.820295000537641, 40.585570999696365 ] } },
{ "type": "Feature", "properties": { "NAME": "Beach 67th St & Rockaway Frwy At Sw Corner", "URL": "http:\/\/www.mta.info\/nyct\/service\/", "LINE": "A" }, "geometry": { "type": "Point", "coordinates": [ -73.796585000378059, 40.5908400006874 ] } },
{ "type": "Feature", "properties": { "NAME": "Beach 69th St & Rockaway Frwy At Se Corner", "URL": "http:\/\/www.mta.info\/nyct\/service\/", "LINE": "A" }, "geometry": { "type": "Point", "coordinates": [ -73.796100001649947, 40.591176000011416 ] } },
{ "type": "Feature", "properties": { "NAME": "Beach 59th Sr & Rockaway Frwy At Sw Corner", "URL": "http:\/\/www.mta.info\/nyct\/service\/", "LINE": "A" }, "geometry": { "type": "Point", "coordinates": [ -73.789150000432414, 40.592231000410194 ] } },
{ "type": "Feature", "properties": { "NAME": "Beach 45th St & Edgemere Ave At Sw Corner", "URL": "http:\/\/www.mta.info\/nyct\/service\/", "LINE": "A" }, "geometry": { "type": "Point", "coordinates": [ -73.776164999302352, 40.59282599835992 ] } },
{ "type": "Feature", "properties": { "NAME": "Beach 45th St & Edgemere Ave At Ne Corner", "URL": "http:\/\/www.mta.info\/nyct\/service\/", "LINE": "A" }, "geometry": { "type": "Point", "coordinates": [ -73.77604699848419, 40.593092002235224 ] } },
{ "type": "Feature", "properties": { "NAME": "Beach 35th & Rockaway Frwy At Sw Corner", "URL": "http:\/\/www.mta.info\/nyct\/service\/", "LINE": "A" }, "geometry": { "type": "Point", "coordinates": [ -73.767884998770214, 40.595411998905966 ] } },
{ "type": "Feature", "properties": { "NAME": "Alabama Av & Fulton St At Se Corner", "URL": "http:\/\/www.mta.info\/nyct\/service\/", "LINE": "J" }, "geometry": { "type": "Point", "coordinates": [ -73.899585999601925, 40.676769000186063 ] } },
{ "type": "Feature", "properties": { "NAME": "Turnbull Ave & E 105th St At Se Corner", "URL": "http:\/\/www.mta.info\/nyct\/service\/", "LINE": "L" }, "geometry": { "type": "Point", "coordinates": [ -73.899178394245567, 40.651420518859673 ] } },
{ "type": "Feature", "properties": { "NAME": "8th Ave & 14th St At Sw Corner", "URL": "http:\/\/www.mta.info\/nyct\/service\/", "LINE": "A-C-E-L" }, "geometry": { "type": "Point", "coordinates": [ -74.002803999721593, 40.739733998751497 ] } },
{ "type": "Feature", "properties": { "NAME": "8th Ave & 14th St At Nw Corner", "URL": "http:\/\/www.mta.info\/nyct\/service\/", "LINE": "A-C-E-L" }, "geometry": { "type": "Point", "coordinates": [ -74.002654998578649, 40.739948999069625 ] } },
{ "type": "Feature", "properties": { "NAME": "8th Ave & 14th St At Ne Corner", "URL": "http:\/\/www.mta.info\/nyct\/service\/", "LINE": "A-C-E-L" }, "geometry": { "type": "Point", "coordinates": [ -74.002255998590059, 40.739776000889613 ] } },
{ "type": "Feature", "properties": { "NAME": "8th Ave & 15th St At Ne Corner", "URL": "http:\/\/www.mta.info\/nyct\/service\/", "LINE": "A-C-E-L" }, "geometry": { "type": "Point", "coordinates": [ -74.001762001870603, 40.74041900002635 ] } },
{ "type": "Feature", "properties": { "NAME": "8th Ave & 16th St At Se Corner", "URL": "http:\/\/www.mta.info\/nyct\/service\/", "LINE": "A-C-E-L" }, "geometry": { "type": "Point", "coordinates": [ -74.001401999662107, 40.740943998926696 ] } },
{ "type": "Feature", "properties": { "NAME": "8th Ave & 16th St At Ne Corner", "URL": "http:\/\/www.mta.info\/nyct\/service\/", "LINE": "A-C-E-L" }, "geometry": { "type": "Point", "coordinates": [ -74.001307999682922, 40.74105699881671 ] } },
{ "type": "Feature", "properties": { "NAME": "Fulton St & Nassau St At Ne Corner", "URL": "http:\/\/www.mta.info\/nyct\/service\/", "LINE": "2-3-4-5-A-C-J-Z" }, "geometry": { "type": "Point", "coordinates": [ -74.007562000690584, 40.71020699855903 ] } },
{ "type": "Feature", "properties": { "NAME": "8th Ave & 23rd St At Sw Corner", "URL": "http:\/\/www.mta.info\/nyct\/service\/", "LINE": "A-C-E" }, "geometry": { "type": "Point", "coordinates": [ -73.998770999607402, 40.745278000748549 ] } },
{ "type": "Feature", "properties": { "NAME": "8th Ave & 23rd St At Nw Corner", "URL": "http:\/\/www.mta.info\/nyct\/service\/", "LINE": "A-C-E" }, "geometry": { "type": "Point", "coordinates": [ -73.998642000964026, 40.745505000885373 ] } },
{ "type": "Feature", "properties": { "NAME": "6th Ave & 14th St At Sw Corner", "URL": "http:\/\/www.mta.info\/nyct\/service\/", "LINE": "1-2-3-L-F-M" }, "geometry": { "type": "Point", "coordinates": [ -73.997220000235643, 40.737423001418939 ] } },
{ "type": "Feature", "properties": { "NAME": "6th Ave & 14th St At Nw Corner", "URL": "http:\/\/www.mta.info\/nyct\/service\/", "LINE": "1-2-3-L-F-M" }, "geometry": { "type": "Point", "coordinates": [ -73.997110999194689, 40.73757200037587 ] } },
{ "type": "Feature", "properties": { "NAME": "6th Ave & 14th St At Se Corner", "URL": "http:\/\/www.mta.info\/nyct\/service\/", "LINE": "1-2-3-L-F-M" }, "geometry": { "type": "Point", "coordinates": [ -73.996703998803213, 40.737197001049573 ] } },
{ "type": "Feature", "properties": { "NAME": "6th Ave & 14th St At Se Corner", "URL": "http:\/\/www.mta.info\/nyct\/service\/", "LINE": "1-2-3-L-F-M" }, "geometry": { "type": "Point", "coordinates": [ -73.996578001604604, 40.737148999305127 ] } },
{ "type": "Feature", "properties": { "NAME": "6th Ave & 14th St At Ne Corner", "URL": "http:\/\/www.mta.info\/nyct\/service\/", "LINE": "1-2-3-L-F-M" }, "geometry": { "type": "Point", "coordinates": [ -73.996437000609419, 40.737286000192952 ] } },
{ "type": "Feature", "properties": { "NAME": "6th Ave & 16th St At Se Corner", "URL": "http:\/\/www.mta.info\/nyct\/service\/", "LINE": "1-2-3-L-F-M" }, "geometry": { "type": "Point", "coordinates": [ -73.995685001283633, 40.73852900049188 ] } },
{ "type": "Feature", "properties": { "NAME": "4th Ave & 14th St At Sw Corner", "URL": "http:\/\/www.mta.info\/nyct\/service\/", "LINE": "4-5-6-6 Express-L-N-Q-R" }, "geometry": { "type": "Point", "coordinates": [ -73.990172999049406, 40.734474001371566 ] } },
{ "type": "Feature", "properties": { "NAME": "Broadway & 14th St At Sw Corner", "URL": "http:\/\/www.mta.info\/nyct\/service\/", "LINE": "4-5-6-6 Express-L-N-Q-R" }, "geometry": { "type": "Point", "coordinates": [ -73.991276999096058, 40.734890998534325 ] } },
{ "type": "Feature", "properties": { "NAME": "4th Ave & 15th St At Sw Corner", "URL": "http:\/\/www.mta.info\/nyct\/service\/", "LINE": "4-5-6-6 Express-L-N-Q-R" }, "geometry": { "type": "Point", "coordinates": [ -73.990282998459463, 40.735344001187805 ] } },
{ "type": "Feature", "properties": { "NAME": "Broadway & 16th St At Ne Corner", "URL": "http:\/\/www.mta.info\/nyct\/service\/", "LINE": "4-5-6-6 Express-L-N-Q-R" }, "geometry": { "type": "Point", "coordinates": [ -73.990446998599822, 40.736522998509528 ] } },
{ "type": "Feature", "properties": { "NAME": "7th Ave & 18th St At Nw Corner (Downtown Only)", "URL": "http:\/\/www.mta.info\/nyct\/service\/", "LINE": "1-2" }, "geometry": { "type": "Point", "coordinates": [ -73.998035000647405, 40.741205999544363 ] } },
{ "type": "Feature", "properties": { "NAME": "7th Ave & 18th St At Se Corner (Uptown Only)", "URL": "http:\/\/www.mta.info\/nyct\/service\/", "LINE": "1-2" }, "geometry": { "type": "Point", "coordinates": [ -73.997697998777582, 40.740920001216786 ] } },
{ "type": "Feature", "properties": { "NAME": "7th Ave & 18th St At Nw Corner (Downtown Only)", "URL": "http:\/\/www.mta.info\/nyct\/service\/", "LINE": "1-2" }, "geometry": { "type": "Point", "coordinates": [ -73.99755699900895, 40.741783000179936 ] } },
{ "type": "Feature", "properties": { "NAME": "7th Ave & 18th St At Ne Corner (Uptown Only)", "URL": "http:\/\/www.mta.info\/nyct\/service\/", "LINE": "1-2" }, "geometry": { "type": "Point", "coordinates": [ -73.997196999734157, 40.741616999876108 ] } },
{ "type": "Feature", "properties": { "NAME": "8th Ave & 23rd St At Ne Corner", "URL": "http:\/\/www.mta.info\/nyct\/service\/", "LINE": "A-C-E" }, "geometry": { "type": "Point", "coordinates": [ -73.998145001748568, 40.745299000757335 ] } },
{ "type": "Feature", "properties": { "NAME": "8th Ave & 24th St At Nw Corner", "URL": "http:\/\/www.mta.info\/nyct\/service\/", "LINE": "A-C-E" }, "geometry": { "type": "Point", "coordinates": [ -73.998144999921919, 40.746109999592846 ] } },
{ "type": "Feature", "properties": { "NAME": "8th Ave & 25th St At Sw Corner", "URL": "http:\/\/www.mta.info\/nyct\/service\/", "LINE": "A-C-E" }, "geometry": { "type": "Point", "coordinates": [ -73.997801000631597, 40.746602999733724 ] } },
{ "type": "Feature", "properties": { "NAME": "Church St & Warren St At Se Corner", "URL": "http:\/\/www.mta.info\/nyct\/service\/", "LINE": "2-3-A-C-E" }, "geometry": { "type": "Point", "coordinates": [ -74.008356999634231, 40.714199998253655 ] } },
{ "type": "Feature", "properties": { "NAME": "Broadway & Warren St At Ne Corner", "URL": "http:\/\/www.mta.info\/nyct\/service\/", "LINE": "N-R" }, "geometry": { "type": "Point", "coordinates": [ -74.006760001618574, 40.713436999373464 ] } },
{ "type": "Feature", "properties": { "NAME": "8th Ave & 25th St At Nw Corner", "URL": "http:\/\/www.mta.info\/nyct\/service\/", "LINE": "A-C-E" }, "geometry": { "type": "Point", "coordinates": [ -73.997710999697972, 40.746731998841852 ] } },
{ "type": "Feature", "properties": { "NAME": "8th Ave & 25th St At Ne Corner", "URL": "http:\/\/www.mta.info\/nyct\/service\/", "LINE": "A-C-E" }, "geometry": { "type": "Point", "coordinates": [ -73.997142000530829, 40.746483001179797 ] } },
{ "type": "Feature", "properties": { "NAME": "7th Ave & 23rd St At Se Corner (Uptown Only)", "URL": "http:\/\/www.mta.info\/nyct\/service\/", "LINE": "1-2" }, "geometry": { "type": "Point", "coordinates": [ -73.995608001586348, 40.743910000657394 ] } },
{ "type": "Feature", "properties": { "NAME": "7th Ave & 23rd St At Nw Corner (Downtown Only)", "URL": "http:\/\/www.mta.info\/nyct\/service\/", "LINE": "1-2" }, "geometry": { "type": "Point", "coordinates": [ -73.995811000594955, 40.744312999762911 ] } },
{ "type": "Feature", "properties": { "NAME": "7th Ave & 23rd St At Ne Corner (Uptown Only)", "URL": "http:\/\/www.mta.info\/nyct\/service\/", "LINE": "1-2" }, "geometry": { "type": "Point", "coordinates": [ -73.995347999024631, 40.744119999103404 ] } },
{ "type": "Feature", "properties": { "NAME": "6th Ave & 23rd St At Nw Corner (Downtown Only)", "URL": "http:\/\/www.mta.info\/nyct\/service\/", "LINE": "F-M" }, "geometry": { "type": "Point", "coordinates": [ -73.993099001808829, 40.743121000394567 ] } },
{ "type": "Feature", "properties": { "NAME": "8th Ave & 33rd St At Sw Corner", "URL": "http:\/\/www.mta.info\/nyct\/service\/", "LINE": "A-C-E" }, "geometry": { "type": "Point", "coordinates": [ -73.99424300106611, 40.751561001078535 ] } },
{ "type": "Feature", "properties": { "NAME": "7th Ave & 28th St At Sw Corner (Downtown Only)", "URL": "http:\/\/www.mta.info\/nyct\/service\/", "LINE": "1-2" }, "geometry": { "type": "Point", "coordinates": [ -73.993611000600069, 40.747263999326762 ] } },
{ "type": "Feature", "properties": { "NAME": "7th Ave & 28th St At Ne Corner (Uptown Only)", "URL": "http:\/\/www.mta.info\/nyct\/service\/", "LINE": "1-2" }, "geometry": { "type": "Point", "coordinates": [ -73.993120999518553, 40.747216001029848 ] } },
{ "type": "Feature", "properties": { "NAME": "7th Ave & 33rd St At Nw Corner", "URL": "http:\/\/www.mta.info\/nyct\/service\/", "LINE": "1-2-3" }, "geometry": { "type": "Point", "coordinates": [ -73.991253999459218, 40.750476000381305 ] } },
{ "type": "Feature", "properties": { "NAME": "7th Ave & 34th St At Se Corner", "URL": "http:\/\/www.mta.info\/nyct\/service\/", "LINE": "1-2-3" }, "geometry": { "type": "Point", "coordinates": [ -73.990480998575478, 40.750810000407135 ] } },
{ "type": "Feature", "properties": { "NAME": "8th Ave & 33rd St At Se Corner", "URL": "http:\/\/www.mta.info\/nyct\/service\/", "LINE": "A-C-E" }, "geometry": { "type": "Point", "coordinates": [ -73.99388699828404, 40.751291000514804 ] } },
{ "type": "Feature", "properties": { "NAME": "8th Ave & 33rd St At Nw Corner", "URL": "http:\/\/www.mta.info\/nyct\/service\/", "LINE": "A-C-E" }, "geometry": { "type": "Point", "coordinates": [ -73.994107000871466, 40.751677000428323 ] } },
{ "type": "Feature", "properties": { "NAME": "8th Ave & 34th St At Se Corner", "URL": "http:\/\/www.mta.info\/nyct\/service\/", "LINE": "A-C-E" }, "geometry": { "type": "Point", "coordinates": [ -73.993351998624817, 40.752020000926095 ] } },
{ "type": "Feature", "properties": { "NAME": "8th Ave & 34th St At Nw Corner", "URL": "http:\/\/www.mta.info\/nyct\/service\/", "LINE": "A-C-E" }, "geometry": { "type": "Point", "coordinates": [ -73.993678999431069, 40.752426999111542 ] } },
{ "type": "Feature", "properties": { "NAME": "8th Ave & 34th St At Ne Corner", "URL": "http:\/\/www.mta.info\/nyct\/service\/", "LINE": "A-C-E" }, "geometry": { "type": "Point", "coordinates": [ -73.993109000868543, 40.752161000862529 ] } },
{ "type": "Feature", "properties": { "NAME": "8th Ave & 35th St At Nw Corner", "URL": "http:\/\/www.mta.info\/nyct\/service\/", "LINE": "A-C-E" }, "geometry": { "type": "Point", "coordinates": [ -73.993187997815369, 40.753032001661261 ] } },
{ "type": "Feature", "properties": { "NAME": "8th Ave & 35th St At Ne Corner", "URL": "http:\/\/www.mta.info\/nyct\/service\/", "LINE": "A-C-E" }, "geometry": { "type": "Point", "coordinates": [ -73.992596001775766, 40.752765998379942 ] } },
{ "type": "Feature", "properties": { "NAME": "7th Ave & 34th St At Nw Corner", "URL": "http:\/\/www.mta.info\/nyct\/service\/", "LINE": "1-2-3" }, "geometry": { "type": "Point", "coordinates": [ -73.990790998160307, 40.751186999741869 ] } },
{ "type": "Feature", "properties": { "NAME": "8th Ave & 40th St At Ne Corner", "URL": "http:\/\/www.mta.info\/nyct\/service\/", "LINE": "1-2-3-7-7 Express-S-A-C-E-N-Q-R" }, "geometry": { "type": "Point", "coordinates": [ -73.990492001463977, 40.755930001785231 ] } },
{ "type": "Feature", "properties": { "NAME": "4th Ave & 14th St At Se Corner", "URL": "http:\/\/www.mta.info\/nyct\/service\/", "LINE": "4-5-6-6 Express-L-N-Q-R" }, "geometry": { "type": "Point", "coordinates": [ -73.98954700165261, 40.734205999622219 ] } },
{ "type": "Feature", "properties": { "NAME": "3rd Ave & 14th St At Se Corner (To Brooklyn Only)", "URL": "http:\/\/www.mta.info\/nyct\/service\/", "LINE": "L" }, "geometry": { "type": "Point", "coordinates": [ -73.986656999595766, 40.732960999837857 ] } },
{ "type": "Feature", "properties": { "NAME": "3rd Ave & 14th St At Ne Corner (To 8 Av Only)", "URL": "http:\/\/www.mta.info\/nyct\/service\/", "LINE": "L" }, "geometry": { "type": "Point", "coordinates": [ -73.986931001233742, 40.733276999102152 ] } },
{ "type": "Feature", "properties": { "NAME": "1st Ave & 14th St At Se Corner (To Brooklyn Only)", "URL": "http:\/\/www.mta.info\/nyct\/service\/", "LINE": "L" }, "geometry": { "type": "Point", "coordinates": [ -73.982625001917583, 40.731050000286551 ] } },
{ "type": "Feature", "properties": { "NAME": "1st Ave & 14th St At Se Corner (To Brooklyn Only)", "URL": "http:\/\/www.mta.info\/nyct\/service\/", "LINE": "L" }, "geometry": { "type": "Point", "coordinates": [ -73.982563000470904, 40.731118000582839 ] } },
{ "type": "Feature", "properties": { "NAME": "1st Ave & 14th St At Ne Corner (To 8 Av Only)", "URL": "http:\/\/www.mta.info\/nyct\/service\/", "LINE": "L" }, "geometry": { "type": "Point", "coordinates": [ -73.982112002141363, 40.731397001620365 ] } },
{ "type": "Feature", "properties": { "NAME": "Broadway & 22nd St At Nw Corner (Downtown Only)", "URL": "http:\/\/www.mta.info\/nyct\/service\/", "LINE": "N-R" }, "geometry": { "type": "Point", "coordinates": [ -73.989632000076625, 40.740758000948979 ] } },
{ "type": "Feature", "properties": { "NAME": "5th Ave & 22nd St At Ne Corner (Downtown Only)", "URL": "http:\/\/www.mta.info\/nyct\/service\/", "LINE": "N-R" }, "geometry": { "type": "Point", "coordinates": [ -73.989639000298425, 40.741271001466167 ] } },
{ "type": "Feature", "properties": { "NAME": "Chambers St & West Broadway At Sw Corner", "URL": "http:\/\/www.mta.info\/nyct\/service\/", "LINE": "1-2-3" }, "geometry": { "type": "Point", "coordinates": [ -74.009452999077396, 40.715443998571722 ] } },
{ "type": "Feature", "properties": { "NAME": "Chambers St & West Broadway At Se Corner", "URL": "http:\/\/www.mta.info\/nyct\/service\/", "LINE": "1-2-3" }, "geometry": { "type": "Point", "coordinates": [ -74.009211001033336, 40.715349000427281 ] } },
{ "type": "Feature", "properties": { "NAME": "Chambers St & West Broadway At Ne Corner", "URL": "http:\/\/www.mta.info\/nyct\/service\/", "LINE": "1-2-3" }, "geometry": { "type": "Point", "coordinates": [ -74.009031000312504, 40.715576000210334 ] } },
{ "type": "Feature", "properties": { "NAME": "Church St & Chambers St At Sw Corner", "URL": "http:\/\/www.mta.info\/nyct\/service\/", "LINE": "2-3-A-C-E" }, "geometry": { "type": "Point", "coordinates": [ -74.008161999312449, 40.714873001164875 ] } },
{ "type": "Feature", "properties": { "NAME": "Church St & Chambers St At Se Corner", "URL": "http:\/\/www.mta.info\/nyct\/service\/", "LINE": "2-3-A-C-E" }, "geometry": { "type": "Point", "coordinates": [ -74.007903000542257, 40.714776998520271 ] } },
{ "type": "Feature", "properties": { "NAME": "Church St & Chambers St At Ne Corner", "URL": "http:\/\/www.mta.info\/nyct\/service\/", "LINE": "2-3-A-C-E" }, "geometry": { "type": "Point", "coordinates": [ -74.00773900114153, 40.714991998682628 ] } },
{ "type": "Feature", "properties": { "NAME": "Varick St & Franklin St At Sw Corner (Downtown Only)", "URL": "http:\/\/www.mta.info\/nyct\/service\/", "LINE": "1" }, "geometry": { "type": "Point", "coordinates": [ -74.007120999083114, 40.718964998962399 ] } },
{ "type": "Feature", "properties": { "NAME": "West Broadway & Franklin St At Sw Corner (Uptown Only)", "URL": "http:\/\/www.mta.info\/nyct\/service\/", "LINE": "1" }, "geometry": { "type": "Point", "coordinates": [ -74.00667500016327, 40.719000999434471 ] } },
{ "type": "Feature", "properties": { "NAME": "Varick St & North Moore St At Ne Corner (Uptown Only)", "URL": "http:\/\/www.mta.info\/nyct\/service\/", "LINE": "1" }, "geometry": { "type": "Point", "coordinates": [ -74.006620001790239, 40.719917998662673 ] } },
{ "type": "Feature", "properties": { "NAME": "Canal St & Varick St At Nw Corner (Downtown Only)", "URL": "http:\/\/www.mta.info\/nyct\/service\/", "LINE": "1" }, "geometry": { "type": "Point", "coordinates": [ -74.006620001138231, 40.722931998597538 ] } },
{ "type": "Feature", "properties": { "NAME": "Broadway & 23rd St At Nw Corner (Downtown Only)", "URL": "http:\/\/www.mta.info\/nyct\/service\/", "LINE": "N-R" }, "geometry": { "type": "Point", "coordinates": [ -73.989403999185555, 40.741978999132826 ] } },
{ "type": "Feature", "properties": { "NAME": "Broadway & 23rd St At Se Corner (Uptown Only)", "URL": "http:\/\/www.mta.info\/nyct\/service\/", "LINE": "N-R" }, "geometry": { "type": "Point", "coordinates": [ -73.989082997657476, 40.741080000946404 ] } },
{ "type": "Feature", "properties": { "NAME": "Broadway & 23rd St At Ne Corner (Uptown Only)", "URL": "http:\/\/www.mta.info\/nyct\/service\/", "LINE": "N-R" }, "geometry": { "type": "Point", "coordinates": [ -73.988894997485446, 40.741377999454429 ] } },
{ "type": "Feature", "properties": { "NAME": "Broadway & 23rd St At Ne Corner (Uptown Only)", "URL": "http:\/\/www.mta.info\/nyct\/service\/", "LINE": "N-R" }, "geometry": { "type": "Point", "coordinates": [ -73.988988999230841, 40.741538999227487 ] } },
{ "type": "Feature", "properties": { "NAME": "Park Ave & 23rd St At Sw Corner (Downtown Only)", "URL": "http:\/\/www.mta.info\/nyct\/service\/", "LINE": "4-6-6 Express" }, "geometry": { "type": "Point", "coordinates": [ -73.986601001596739, 40.740096999256913 ] } },
{ "type": "Feature", "properties": { "NAME": "Park Ave & 23rd St At Sw Corner (Downtown Only)", "URL": "http:\/\/www.mta.info\/nyct\/service\/", "LINE": "4-6-6 Express" }, "geometry": { "type": "Point", "coordinates": [ -73.986616999768785, 40.740180000224235 ] } },
{ "type": "Feature", "properties": { "NAME": "Park Ave & 23rd St At Se Corner (Uptown Only)", "URL": "http:\/\/www.mta.info\/nyct\/service\/", "LINE": "4-6-6 Express" }, "geometry": { "type": "Point", "coordinates": [ -73.986233001044056, 40.740008001005236 ] } },
{ "type": "Feature", "properties": { "NAME": "Broadway & 28th St At Nw Corner (Downtown Only)", "URL": "http:\/\/www.mta.info\/nyct\/service\/", "LINE": "N-R" }, "geometry": { "type": "Point", "coordinates": [ -73.989009999954831, 40.745487999136095 ] } },
{ "type": "Feature", "properties": { "NAME": "Broadway & 28th St At Se Corner (Uptown Only)", "URL": "http:\/\/www.mta.info\/nyct\/service\/", "LINE": "N-R" }, "geometry": { "type": "Point", "coordinates": [ -73.988485999437017, 40.745093000656183 ] } },
{ "type": "Feature", "properties": { "NAME": "Park Ave & 23rd St At Ne Corner (Uptown Only)", "URL": "http:\/\/www.mta.info\/nyct\/service\/", "LINE": "4-6-6 Express" }, "geometry": { "type": "Point", "coordinates": [ -73.986006000464982, 40.740180001669714 ] } },
{ "type": "Feature", "properties": { "NAME": "Park Ave & 28th St At Sw Corner (Downtown Only)", "URL": "http:\/\/www.mta.info\/nyct\/service\/", "LINE": "4-6-6 Express" }, "geometry": { "type": "Point", "coordinates": [ -73.984408998106815, 40.743394000468776 ] } },
{ "type": "Feature", "properties": { "NAME": "Park Ave & 28th St At Nw Corner (Downtown Only)", "URL": "http:\/\/www.mta.info\/nyct\/service\/", "LINE": "4-6-6 Express" }, "geometry": { "type": "Point", "coordinates": [ -73.984280002465198, 40.743484000181851 ] } },
{ "type": "Feature", "properties": { "NAME": "Park Ave & 28th St At Se Corner (Uptown Only)", "URL": "http:\/\/www.mta.info\/nyct\/service\/", "LINE": "4-6-6 Express" }, "geometry": { "type": "Point", "coordinates": [ -73.983896000234537, 40.743166999863121 ] } },
{ "type": "Feature", "properties": { "NAME": "Park Ave & 28th St At Ne Corner (Uptown Only)", "URL": "http:\/\/www.mta.info\/nyct\/service\/", "LINE": "4-6-6 Express" }, "geometry": { "type": "Point", "coordinates": [ -73.983856999302674, 40.743303998239277 ] } },
{ "type": "Feature", "properties": { "NAME": "Park Ave & 32nd St At Sw Corner (Downtown Only)", "URL": "http:\/\/www.mta.info\/nyct\/service\/", "LINE": "4-6-6 Express" }, "geometry": { "type": "Point", "coordinates": [ -73.982530999463194, 40.745723000918325 ] } },
{ "type": "Feature", "properties": { "NAME": "Park Ave & 32nd St At Se Corner (Uptown Only)", "URL": "http:\/\/www.mta.info\/nyct\/service\/", "LINE": "4-6-6 Express" }, "geometry": { "type": "Point", "coordinates": [ -73.982198000989911, 40.745585001480066 ] } },
{ "type": "Feature", "properties": { "NAME": "Park Ave & 33rd St At Se Corner (Uptown Only)", "URL": "http:\/\/www.mta.info\/nyct\/service\/", "LINE": "4-6-6 Express" }, "geometry": { "type": "Point", "coordinates": [ -73.981663000328012, 40.746262999645367 ] } },
{ "type": "Feature", "properties": { "NAME": "Park Ave & 33rd St At Ne Corner (Uptown Only)", "URL": "http:\/\/www.mta.info\/nyct\/service\/", "LINE": "4-6-6 Express" }, "geometry": { "type": "Point", "coordinates": [ -73.981532998863159, 40.746549999191572 ] } },
{ "type": "Feature", "properties": { "NAME": "6th Ave & 32nd St At Nw Corner", "URL": "http:\/\/www.mta.info\/nyct\/service\/", "LINE": "B-D-F-M-N-Q-R" }, "geometry": { "type": "Point", "coordinates": [ -73.988705137605564, 40.748746878587134 ] } },
{ "type": "Feature", "properties": { "NAME": "Broadway & 34th St At Nw Corner", "URL": "http:\/\/www.mta.info\/nyct\/service\/", "LINE": "B-D-F-M-N-Q-R" }, "geometry": { "type": "Point", "coordinates": [ -73.988112997536973, 40.75007599896653 ] } },
{ "type": "Feature", "properties": { "NAME": "Broadway & 32nd St At Ne Corner", "URL": "http:\/\/www.mta.info\/nyct\/service\/", "LINE": "B-D-F-M-N-Q-R" }, "geometry": { "type": "Point", "coordinates": [ -73.988044998919833, 40.748360999410167 ] } },
{ "type": "Feature", "properties": { "NAME": "6th Ave & 35th St At Nw Corner", "URL": "http:\/\/www.mta.info\/nyct\/service\/", "LINE": "B-D-F-M-N-Q-R" }, "geometry": { "type": "Point", "coordinates": [ -73.987350999703239, 40.750642000134846 ] } },
{ "type": "Feature", "properties": { "NAME": "7th Ave & 40th St At Se Corner", "URL": "http:\/\/www.mta.info\/nyct\/service\/", "LINE": "1-2-3-7-7 Express-S-A-C-E-N-Q-R" }, "geometry": { "type": "Point", "coordinates": [ -73.987826998898399, 40.75456799959391 ] } },
{ "type": "Feature", "properties": { "NAME": "Broadway & 40th St At Ne Corner", "URL": "http:\/\/www.mta.info\/nyct\/service\/", "LINE": "1-2-3-7-7 Express-S-A-C-E-N-Q-R" }, "geometry": { "type": "Point", "coordinates": [ -73.98662300218642, 40.754300999640897 ] } },
{ "type": "Feature", "properties": { "NAME": "6th Ave & 40th St At Nw Corner", "URL": "http:\/\/www.mta.info\/nyct\/service\/", "LINE": "7-7 Express-B-D-F-M" }, "geometry": { "type": "Point", "coordinates": [ -73.985083999145701, 40.753708999372265 ] } },
{ "type": "Feature", "properties": { "NAME": "6th Ave & 40th St At Se Corner", "URL": "http:\/\/www.mta.info\/nyct\/service\/", "LINE": "7-7 Express-B-D-F-M" }, "geometry": { "type": "Point", "coordinates": [ -73.984891998508346, 40.753407999345832 ] } },
{ "type": "Feature", "properties": { "NAME": "State St & Whitehall St At   Corner", "URL": "http:\/\/www.mta.info\/nyct\/service\/", "LINE": "N-R" }, "geometry": { "type": "Point", "coordinates": [ -74.013117001439056, 40.702018999972644 ] } },
{ "type": "Feature", "properties": { "NAME": "State & Battery Pl At Sw Corner", "URL": "http:\/\/www.mta.info\/nyct\/service\/", "LINE": "4-5" }, "geometry": { "type": "Point", "coordinates": [ -74.014509001881493, 40.704156999495282 ] } },
{ "type": "Feature", "properties": { "NAME": "Broadway & Battery Pl At Nw Corner", "URL": "http:\/\/www.mta.info\/nyct\/service\/", "LINE": "4-5" }, "geometry": { "type": "Point", "coordinates": [ -74.014572000035415, 40.70482499817517 ] } },
{ "type": "Feature", "properties": { "NAME": "Stone St & Whitehall St At Sw Corner", "URL": "http:\/\/www.mta.info\/nyct\/service\/", "LINE": "N-R" }, "geometry": { "type": "Point", "coordinates": [ -74.013284000727126, 40.704014998158932 ] } },
{ "type": "Feature", "properties": { "NAME": "Broadway & Bowling Green At Nw Corner", "URL": "http:\/\/www.mta.info\/nyct\/service\/", "LINE": "4-5" }, "geometry": { "type": "Point", "coordinates": [ -74.013553999449229, 40.704634000029223 ] } },
{ "type": "Feature", "properties": { "NAME": "Stone St & Whitehall St At Ne Corner", "URL": "http:\/\/www.mta.info\/nyct\/service\/", "LINE": "N-R" }, "geometry": { "type": "Point", "coordinates": [ -74.013001999101036, 40.704122999177095 ] } },
{ "type": "Feature", "properties": { "NAME": "Broad St & Exchange Pl At Sw Corner", "URL": "http:\/\/www.mta.info\/nyct\/service\/", "LINE": "J-Z" }, "geometry": { "type": "Point", "coordinates": [ -74.011540000283375, 40.705772000920696 ] } },
{ "type": "Feature", "properties": { "NAME": "Broad St & Exchange Pl At Se Corner", "URL": "http:\/\/www.mta.info\/nyct\/service\/", "LINE": "J-Z" }, "geometry": { "type": "Point", "coordinates": [ -74.011286999577862, 40.705827999302734 ] } },
{ "type": "Feature", "properties": { "NAME": "Greenwich St & Morris St At Nw Corner (Downtown Only)", "URL": "http:\/\/www.mta.info\/nyct\/service\/", "LINE": "1" }, "geometry": { "type": "Point", "coordinates": [ -74.014298999510203, 40.706512001139437 ] } },
{ "type": "Feature", "properties": { "NAME": "Greenwich St & Morris St At Ne Corner (Uptown Only)", "URL": "http:\/\/www.mta.info\/nyct\/service\/", "LINE": "1" }, "geometry": { "type": "Point", "coordinates": [ -74.014114000055784, 40.706553000383693 ] } },
{ "type": "Feature", "properties": { "NAME": "Greenwich St & Rector St At Sw Corner (Downtown Only)", "URL": "http:\/\/www.mta.info\/nyct\/service\/", "LINE": "1" }, "geometry": { "type": "Point", "coordinates": [ -74.013866999063879, 40.707558000910872 ] } },
{ "type": "Feature", "properties": { "NAME": "Trinity Pl & Rector St At Sw Corner (Downtown Only)", "URL": "http:\/\/www.mta.info\/nyct\/service\/", "LINE": "N-R" }, "geometry": { "type": "Point", "coordinates": [ -74.013266999459901, 40.707512999644216 ] } },
{ "type": "Feature", "properties": { "NAME": "Trinity Pl & Rector St At Sw Corner (Downtown Only)", "URL": "http:\/\/www.mta.info\/nyct\/service\/", "LINE": "N-R" }, "geometry": { "type": "Point", "coordinates": [ -74.013118000588122, 40.707721001092509 ] } },
{ "type": "Feature", "properties": { "NAME": "Trinity Pl & Rector St At Se Corner (Uptown Only)", "URL": "http:\/\/www.mta.info\/nyct\/service\/", "LINE": "N-R" }, "geometry": { "type": "Point", "coordinates": [ -74.012923999496877, 40.707646999106395 ] } },
{ "type": "Feature", "properties": { "NAME": "Trinity Pl & Rector St At Nw Corner (Downtown Only)", "URL": "http:\/\/www.mta.info\/nyct\/service\/", "LINE": "N-R" }, "geometry": { "type": "Point", "coordinates": [ -74.012862001394339, 40.708063000279914 ] } },
{ "type": "Feature", "properties": { "NAME": "Trinity Pl & Rector St At Ne Corner (Uptown Only)", "URL": "http:\/\/www.mta.info\/nyct\/service\/", "LINE": "N-R" }, "geometry": { "type": "Point", "coordinates": [ -74.012703998703685, 40.708009000660667 ] } },
{ "type": "Feature", "properties": { "NAME": "Greenwich St & Rector St At Nw Corner (Downtown Only)", "URL": "http:\/\/www.mta.info\/nyct\/service\/", "LINE": "1" }, "geometry": { "type": "Point", "coordinates": [ -74.013602998199005, 40.708160998866752 ] } },
{ "type": "Feature", "properties": { "NAME": "Broadway & Rector St At Sw Corner", "URL": "http:\/\/www.mta.info\/nyct\/service\/", "LINE": "4-5" }, "geometry": { "type": "Point", "coordinates": [ -74.012161000138022, 40.707314999350174 ] } },
{ "type": "Feature", "properties": { "NAME": "Broadway & Rector St At Nw Corner", "URL": "http:\/\/www.mta.info\/nyct\/service\/", "LINE": "4-5" }, "geometry": { "type": "Point", "coordinates": [ -74.011927012117724, 40.707576978023212 ] } },
{ "type": "Feature", "properties": { "NAME": "Broadway & Rector St At Se Corner", "URL": "http:\/\/www.mta.info\/nyct\/service\/", "LINE": "4-5" }, "geometry": { "type": "Point", "coordinates": [ -74.011996998762569, 40.707190000085085 ] } },
{ "type": "Feature", "properties": { "NAME": "Broadway & Wall St At Se Corner", "URL": "http:\/\/www.mta.info\/nyct\/service\/", "LINE": "4-5" }, "geometry": { "type": "Point", "coordinates": [ -74.011847998799084, 40.70744600058913 ] } },
{ "type": "Feature", "properties": { "NAME": "Broad St & Exchange Pl At Nw Corner", "URL": "http:\/\/www.mta.info\/nyct\/service\/", "LINE": "J-Z" }, "geometry": { "type": "Point", "coordinates": [ -74.011273999637041, 40.706378998384757 ] } },
{ "type": "Feature", "properties": { "NAME": "Broad St & Exchange Pl At Se Corner", "URL": "http:\/\/www.mta.info\/nyct\/service\/", "LINE": "J-Z" }, "geometry": { "type": "Point", "coordinates": [ -74.011128000657294, 40.706141999733376 ] } },
{ "type": "Feature", "properties": { "NAME": "Broad St & Wall St At Se Corner", "URL": "http:\/\/www.mta.info\/nyct\/service\/", "LINE": "J-Z" }, "geometry": { "type": "Point", "coordinates": [ -74.010688999533059, 40.706900999230363 ] } },
{ "type": "Feature", "properties": { "NAME": "Church St & Cortlandt St At Se Corner (Uptown Only)", "URL": "http:\/\/www.mta.info\/nyct\/service\/", "LINE": "N-R" }, "geometry": { "type": "Point", "coordinates": [ -74.011198001728459, 40.710201001506107 ] } },
{ "type": "Feature", "properties": { "NAME": "Church St & Cortlandt St At Ne Corner (Uptown Only)", "URL": "http:\/\/www.mta.info\/nyct\/service\/", "LINE": "N-R" }, "geometry": { "type": "Point", "coordinates": [ -74.011065998114333, 40.710434999945228 ] } },
{ "type": "Feature", "properties": { "NAME": "Church St & Dey St At Se Corner (Uptown Only)", "URL": "http:\/\/www.mta.info\/nyct\/service\/", "LINE": "N-R" }, "geometry": { "type": "Point", "coordinates": [ -74.010643998888057, 40.711065000571637 ] } },
{ "type": "Feature", "properties": { "NAME": "Broad St & Wall St At Se Corner", "URL": "http:\/\/www.mta.info\/nyct\/service\/", "LINE": "J-Z" }, "geometry": { "type": "Point", "coordinates": [ -74.010488999769393, 40.706930998027701 ] } },
{ "type": "Feature", "properties": { "NAME": "William St & Wall St At Sw Corner", "URL": "http:\/\/www.mta.info\/nyct\/service\/", "LINE": "2-3" }, "geometry": { "type": "Point", "coordinates": [ -74.009658000737147, 40.706385000303634 ] } },
{ "type": "Feature", "properties": { "NAME": "William St & Wall St At Se Corner", "URL": "http:\/\/www.mta.info\/nyct\/service\/", "LINE": "2-3" }, "geometry": { "type": "Point", "coordinates": [ -74.009447001084013, 40.706271999070779 ] } },
{ "type": "Feature", "properties": { "NAME": "William St & Wall St At Nw Corner", "URL": "http:\/\/www.mta.info\/nyct\/service\/", "LINE": "2-3" }, "geometry": { "type": "Point", "coordinates": [ -74.009544000320048, 40.706505998718917 ] } },
{ "type": "Feature", "properties": { "NAME": "William St & Cedar St At Nw Corner", "URL": "http:\/\/www.mta.info\/nyct\/service\/", "LINE": "2-3" }, "geometry": { "type": "Point", "coordinates": [ -74.008778000466378, 40.707430998275051 ] } },
{ "type": "Feature", "properties": { "NAME": "Fulton St & Nassau St At Se Corner", "URL": "http:\/\/www.mta.info\/nyct\/service\/", "LINE": "2-3-4-5-A-C-J-Z" }, "geometry": { "type": "Point", "coordinates": [ -74.007647998375248, 40.710105999858513 ] } },
{ "type": "Feature", "properties": { "NAME": "Broadway & Dey St At Sw Corner", "URL": "http:\/\/www.mta.info\/nyct\/service\/", "LINE": "2-3-4-5-A-C-J-Z" }, "geometry": { "type": "Point", "coordinates": [ -74.009695999091775, 40.710453998590197 ] } },
{ "type": "Feature", "properties": { "NAME": "Church St & Fulton St At Ne Corner", "URL": "http:\/\/www.mta.info\/nyct\/service\/", "LINE": "2-3-A-C-E" }, "geometry": { "type": "Point", "coordinates": [ -74.010204000915479, 40.711709999277517 ] } },
{ "type": "Feature", "properties": { "NAME": "Broadway & John St At Se Corner", "URL": "http:\/\/www.mta.info\/nyct\/service\/", "LINE": "2-3-4-5-A-C-J-Z" }, "geometry": { "type": "Point", "coordinates": [ -74.009422001952245, 40.710168001346425 ] } },
{ "type": "Feature", "properties": { "NAME": "Broadway & Fulton St At Sw Corner", "URL": "http:\/\/www.mta.info\/nyct\/service\/", "LINE": "2-3-4-5-A-C-J-Z" }, "geometry": { "type": "Point", "coordinates": [ -74.009266002173447, 40.71091299943609 ] } },
{ "type": "Feature", "properties": { "NAME": "Church St & Vesey St At Nw Corner", "URL": "http:\/\/www.mta.info\/nyct\/service\/", "LINE": "2-3-A-C-E" }, "geometry": { "type": "Point", "coordinates": [ -74.010306001160643, 40.712258001799491 ] } },
{ "type": "Feature", "properties": { "NAME": "Church St & Park Pl At Se Corner", "URL": "http:\/\/www.mta.info\/nyct\/service\/", "LINE": "2-3-A-C-E" }, "geometry": { "type": "Point", "coordinates": [ -74.009245000718863, 40.713036000769108 ] } },
{ "type": "Feature", "properties": { "NAME": "Church St & Park Pl At Sw Corner", "URL": "http:\/\/www.mta.info\/nyct\/service\/", "LINE": "2-3-A-C-E" }, "geometry": { "type": "Point", "coordinates": [ -74.009511002737923, 40.713285999711559 ] } },
{ "type": "Feature", "properties": { "NAME": "Church St & Park Pl At Ne Corner", "URL": "http:\/\/www.mta.info\/nyct\/service\/", "LINE": "2-3-A-C-E" }, "geometry": { "type": "Point", "coordinates": [ -74.00903300064931, 40.713333000704026 ] } },
{ "type": "Feature", "properties": { "NAME": "Church St & Murray St At Nw Corner", "URL": "http:\/\/www.mta.info\/nyct\/service\/", "LINE": "2-3-A-C-E" }, "geometry": { "type": "Point", "coordinates": [ -74.00895999879306, 40.713948999796884 ] } },
{ "type": "Feature", "properties": { "NAME": "7th Ave & 12th St At Ne Corner", "URL": "http:\/\/www.mta.info\/nyct\/service\/", "LINE": "1-2-3-L-F-M" }, "geometry": { "type": "Point", "coordinates": [ -74.000399999051723, 40.737197000167001 ] } },
{ "type": "Feature", "properties": { "NAME": "7th Ave & 13th St At Nw Corner", "URL": "http:\/\/www.mta.info\/nyct\/service\/", "LINE": "1-2-3-L-F-M" }, "geometry": { "type": "Point", "coordinates": [ -74.00032899936825, 40.738012999091438 ] } },
{ "type": "Feature", "properties": { "NAME": "7th Ave & 14th St At Sw Corner", "URL": "http:\/\/www.mta.info\/nyct\/service\/", "LINE": "1-2-3-L-F-M" }, "geometry": { "type": "Point", "coordinates": [ -73.999914001880057, 40.738483998575646 ] } },
{ "type": "Feature", "properties": { "NAME": "7th Ave & 14th St At Se Corner", "URL": "http:\/\/www.mta.info\/nyct\/service\/", "LINE": "1-2-3-L-F-M" }, "geometry": { "type": "Point", "coordinates": [ -73.999655999299748, 40.738358001058984 ] } },
{ "type": "Feature", "properties": { "NAME": "40-33 21 Street", "URL": "http:\/\/www.mta.info\/nyct\/service\/", "LINE": "F" }, "geometry": { "type": "Point", "coordinates": [ -73.941935095190715, 40.754255047789968 ] } },
{ "type": "Feature", "properties": { "NAME": "908 Fulton Street (To Queens Only)", "URL": "http:\/\/www.mta.info\/nyct\/service\/", "LINE": "A-C" }, "geometry": { "type": "Point", "coordinates": [ -73.964555326719562, 40.682825863672853 ] } },
{ "type": "Feature", "properties": { "NAME": "36 Bond Street", "URL": "http:\/\/www.mta.info\/nyct\/service\/", "LINE": "A-C-G" }, "geometry": { "type": "Point", "coordinates": [ -73.984216002025121, 40.688395999680807 ] } },
{ "type": "Feature", "properties": { "NAME": "27 Cleveland Place (Uptown Only)", "URL": "http:\/\/www.mta.info\/nyct\/service\/", "LINE": "4-6-6 Express" }, "geometry": { "type": "Point", "coordinates": [ -73.996912000482851, 40.722115998974658 ] } },
{ "type": "Feature", "properties": { "NAME": "137 East 42 Street (Enter From E 43 St)", "URL": "http:\/\/www.mta.info\/nyct\/service\/", "LINE": "4-5-6-6 Express-7-7 Express-S" }, "geometry": { "type": "Point", "coordinates": [ -73.975294000229582, 40.751800998693987 ] } },
{ "type": "Feature", "properties": { "NAME": "481 8 Avenue", "URL": "http:\/\/www.mta.info\/nyct\/service\/", "LINE": "A-C-E" }, "geometry": { "type": "Point", "coordinates": [ -73.993243998135185, 40.752877000561988 ] } },
{ "type": "Feature", "properties": { "NAME": "368 Jay Street", "URL": "http:\/\/www.mta.info\/nyct\/service\/", "LINE": "A-C-F" }, "geometry": { "type": "Point", "coordinates": [ -73.987442075349676, 40.692967508484642 ] } },
{ "type": "Feature", "properties": { "NAME": "133 Greenpoint Avenue", "URL": "http:\/\/www.mta.info\/nyct\/service\/", "LINE": "G" }, "geometry": { "type": "Point", "coordinates": [ -73.954431999564719, 40.730309998866893 ] } },
{ "type": "Feature", "properties": { "NAME": "1745 Palmetto Street", "URL": "http:\/\/www.mta.info\/nyct\/service\/", "LINE": "M" }, "geometry": { "type": "Point", "coordinates": [ -73.907887999157253, 40.702801000933356 ] } },
{ "type": "Feature", "properties": { "NAME": "640 3 Avenue", "URL": "http:\/\/www.mta.info\/nyct\/service\/", "LINE": "4-5-6-6 Express-7-7 Express-S" }, "geometry": { "type": "Point", "coordinates": [ -73.975077699106961, 40.750850544837562 ] } },
{ "type": "Feature", "properties": { "NAME": "Richmond Valley Rd & Richmond Valley Rd At Se Corner", "URL": "http:\/\/www.mta.info\/nyct\/service\/", "LINE": "@" }, "geometry": { "type": "Point", "coordinates": [ -74.229547986372651, 40.519601111165414 ] } },
{ "type": "Feature", "properties": { "NAME": "Weiner St & Richmond Valley Rd At Sw Corner", "URL": "http:\/\/www.mta.info\/nyct\/service\/", "LINE": "@" }, "geometry": { "type": "Point", "coordinates": [ -74.22891198630866, 40.519765824343274 ] } },
{ "type": "Feature", "properties": { "NAME": "Richmond Valley Rd & Amboy Rd At Nw Corner", "URL": "http:\/\/www.mta.info\/nyct\/service\/", "LINE": "@" }, "geometry": { "type": "Point", "coordinates": [ -74.228679643067622, 40.519670945683259 ] } },
{ "type": "Feature", "properties": { "NAME": "Amboy Rd & Penton St At Nw Corner", "URL": "http:\/\/www.mta.info\/nyct\/service\/", "LINE": "@" }, "geometry": { "type": "Point", "coordinates": [ -74.21681223087451, 40.522489150687385 ] } },
{ "type": "Feature", "properties": { "NAME": "Seguine Av & Herbert St At Ne Corner", "URL": "http:\/\/www.mta.info\/nyct\/service\/", "LINE": "@" }, "geometry": { "type": "Point", "coordinates": [ -74.200667382248838, 40.525104840784834 ] } },
{ "type": "Feature", "properties": { "NAME": "Belfield Av & N Railroad St At Sw Corner", "URL": "http:\/\/www.mta.info\/nyct\/service\/", "LINE": "@" }, "geometry": { "type": "Point", "coordinates": [ -74.178437056798671, 40.540553574069001 ] } },
{ "type": "Feature", "properties": { "NAME": "Richmond Av & Eltingville Bl At Se Corner", "URL": "http:\/\/www.mta.info\/nyct\/service\/", "LINE": "@" }, "geometry": { "type": "Point", "coordinates": [ -74.165214322816794, 40.544387786020174 ] } },
{ "type": "Feature", "properties": { "NAME": "Richmond Av & Mosely Av At Ne Corner", "URL": "http:\/\/www.mta.info\/nyct\/service\/", "LINE": "@" }, "geometry": { "type": "Point", "coordinates": [ -74.165047993143574, 40.544208047127754 ] } },
{ "type": "Feature", "properties": { "NAME": "Nelson Av & Brower St At Ne Corner", "URL": "http:\/\/www.mta.info\/nyct\/service\/", "LINE": "@" }, "geometry": { "type": "Point", "coordinates": [ -74.151490395684675, 40.551044829129644 ] } },
{ "type": "Feature", "properties": { "NAME": "Annadale Rd & N Railroad St At Sw Corner", "URL": "http:\/\/www.mta.info\/nyct\/service\/", "LINE": "@" }, "geometry": { "type": "Point", "coordinates": [ -74.177461361229476, 40.540640309378176 ] } },
{ "type": "Feature", "properties": { "NAME": "Bay Te & S Railroad Av At Ne Corner", "URL": "http:\/\/www.mta.info\/nyct\/service\/", "LINE": "@" }, "geometry": { "type": "Point", "coordinates": [ -74.137468445881424, 40.555998639282073 ] } },
{ "type": "Feature", "properties": { "NAME": "Oak Av & S Railroad Av At Nw Corner", "URL": "http:\/\/www.mta.info\/nyct\/service\/", "LINE": "@" }, "geometry": { "type": "Point", "coordinates": [ -74.126058668493727, 40.56516865995453 ] } },
{ "type": "Feature", "properties": { "NAME": "Guyon Av & N Railroad Av At Se Corner", "URL": "http:\/\/www.mta.info\/nyct\/service\/", "LINE": "@" }, "geometry": { "type": "Point", "coordinates": [ -74.126875883442352, 40.564656715319153 ] } },
{ "type": "Feature", "properties": { "NAME": "Rose Av & New Dorp Pz At   Corner", "URL": "http:\/\/www.mta.info\/nyct\/service\/", "LINE": "@" }, "geometry": { "type": "Point", "coordinates": [ -74.117636196519328, 40.573289144440473 ] } },
{ "type": "Feature", "properties": { "NAME": "Lincoln Av & N Railroad Av At Sw Corner", "URL": "http:\/\/www.mta.info\/nyct\/service\/", "LINE": "@" }, "geometry": { "type": "Point", "coordinates": [ -74.109095473666187, 40.579440600316509 ] } },
{ "type": "Feature", "properties": { "NAME": "Fremont Av & N Railroad Av At Sw Corner", "URL": "http:\/\/www.mta.info\/nyct\/service\/", "LINE": "@" }, "geometry": { "type": "Point", "coordinates": [ -74.10974678378318, 40.579058150696277 ] } },
{ "type": "Feature", "properties": { "NAME": "Jefferson Av & N Railroad Av At Sw Corner", "URL": "http:\/\/www.mta.info\/nyct\/service\/", "LINE": "@" }, "geometry": { "type": "Point", "coordinates": [ -74.102792358711426, 40.584062119987237 ] } },
{ "type": "Feature", "properties": { "NAME": "Seaview Av & Hancock St At Nw Corner", "URL": "http:\/\/www.mta.info\/nyct\/service\/", "LINE": "@" }, "geometry": { "type": "Point", "coordinates": [ -74.096369029936142, 40.588520417823695 ] } },
{ "type": "Feature", "properties": { "NAME": "Seaview Av & N Railroad Av At Sw Corner", "URL": "http:\/\/www.mta.info\/nyct\/service\/", "LINE": "@" }, "geometry": { "type": "Point", "coordinates": [ -74.096640974310617, 40.588615645739019 ] } },
{ "type": "Feature", "properties": { "NAME": "Seaview Av & Hancock St At Ne Corner", "URL": "http:\/\/www.mta.info\/nyct\/service\/", "LINE": "@" }, "geometry": { "type": "Point", "coordinates": [ -74.096109636041419, 40.588655671999852 ] } },
{ "type": "Feature", "properties": { "NAME": "Oregon Rd & Old Town Rd At Nw Corner", "URL": "http:\/\/www.mta.info\/nyct\/service\/", "LINE": "@" }, "geometry": { "type": "Point", "coordinates": [ -74.087563587543926, 40.596083713182253 ] } },
{ "type": "Feature", "properties": { "NAME": "Clove Rd & Hillcrest Te At Sw Corner", "URL": "http:\/\/www.mta.info\/nyct\/service\/", "LINE": "@" }, "geometry": { "type": "Point", "coordinates": [ -74.083610046961383, 40.603646390427791 ] } },
{ "type": "Feature", "properties": { "NAME": "Bay St & Townsend Av At Ne Corner", "URL": "http:\/\/www.mta.info\/nyct\/service\/", "LINE": "@" }, "geometry": { "type": "Point", "coordinates": [ -74.071691597531171, 40.621593362510453 ] } },
{ "type": "Feature", "properties": { "NAME": "Bay St & Cross St At Ne Corner", "URL": "http:\/\/www.mta.info\/nyct\/service\/", "LINE": "@" }, "geometry": { "type": "Point", "coordinates": [ -74.075140575381639, 40.627763142085037 ] } },
{ "type": "Feature", "properties": { "NAME": "Minthorne St & Victory Bl At Se Corner", "URL": "http:\/\/www.mta.info\/nyct\/service\/", "LINE": "@" }, "geometry": { "type": "Point", "coordinates": [ -74.075017838411085, 40.637632256724274 ] } },
{ "type": "Feature", "properties": { "NAME": "101 Church Avenue", "URL": "http:\/\/www.mta.info\/nyct\/service\/", "LINE": "F" }, "geometry": { "type": "Point", "coordinates": [ -73.979332999890062, 40.643214999445973 ] } },
{ "type": "Feature", "properties": { "NAME": "134 India Street", "URL": "http:\/\/www.mta.info\/nyct\/service\/", "LINE": "G" }, "geometry": { "type": "Point", "coordinates": [ -73.954750998292269, 40.73221600074082 ] } },
{ "type": "Feature", "properties": { "NAME": "1173 50 Street", "URL": "http:\/\/www.mta.info\/nyct\/service\/", "LINE": "D" }, "geometry": { "type": "Point", "coordinates": [ -73.994995000260971, 40.636030000159401 ] } },
{ "type": "Feature", "properties": { "NAME": "67-05 Fresh Pond Road", "URL": "http:\/\/www.mta.info\/nyct\/service\/", "LINE": "M" }, "geometry": { "type": "Point", "coordinates": [ -73.896232051876979, 40.705954621149125 ] } },
{ "type": "Feature", "properties": { "NAME": "1725 Broadway", "URL": "http:\/\/www.mta.info\/nyct\/service\/", "LINE": "J-Z" }, "geometry": { "type": "Point", "coordinates": [ -73.911063001281946, 40.683467001180588 ] } },
{ "type": "Feature", "properties": { "NAME": "125 East 77 Street (Downtown Only)", "URL": "http:\/\/www.mta.info\/nyct\/service\/", "LINE": "4-6-6 Express" }, "geometry": { "type": "Point", "coordinates": [ -73.959954001222485, 40.773779000522197 ] } },
{ "type": "Feature", "properties": { "NAME": "849a East 149 Street (To Manhattan Only)", "URL": "http:\/\/www.mta.info\/nyct\/service\/", "LINE": "6" }, "geometry": { "type": "Point", "coordinates": [ -73.904128001988823, 40.812365998199944 ] } },
{ "type": "Feature", "properties": { "NAME": "45 Court Street", "URL": "http:\/\/www.mta.info\/nyct\/service\/", "LINE": "2-3-4-5-N-R" }, "geometry": { "type": "Point", "coordinates": [ -73.990300831107831, 40.692307303049283 ] } },
{ "type": "Feature", "properties": { "NAME": "136-32 Roosevelt Avenue", "URL": "http:\/\/www.mta.info\/nyct\/service\/", "LINE": "7-7 Express" }, "geometry": { "type": "Point", "coordinates": [ -73.828600000383602, 40.759851000910274 ] } },
{ "type": "Feature", "properties": { "NAME": "10-51 Wyckoff Avenue (To Manhattan Only)", "URL": "http:\/\/www.mta.info\/nyct\/service\/", "LINE": "L" }, "geometry": { "type": "Point", "coordinates": [ -73.902974082806978, 40.6951538095459 ] } },
{ "type": "Feature", "properties": { "NAME": "201 East 188 Street", "URL": "http:\/\/www.mta.info\/nyct\/service\/", "LINE": "B-D" }, "geometry": { "type": "Point", "coordinates": [ -73.897352001984984, 40.861344998206945 ] } },
{ "type": "Feature", "properties": { "NAME": "1100 6 Avenue", "URL": "http:\/\/www.mta.info\/nyct\/service\/", "LINE": "7-7 Express-B-D-F-M" }, "geometry": { "type": "Point", "coordinates": [ -73.983657001551819, 40.754832000362335 ] } },
{ "type": "Feature", "properties": { "NAME": "1 Madison Avenue (Enter On E 23 St) (Downtown Only)", "URL": "http:\/\/www.mta.info\/nyct\/service\/", "LINE": "4-6-6 Express" }, "geometry": { "type": "Point", "coordinates": [ -73.986452000627153, 40.740418998588126 ] } },
{ "type": "Feature", "properties": { "NAME": "41-41 Crescent Street", "URL": "http:\/\/www.mta.info\/nyct\/service\/", "LINE": "7-7 Express-N-Q" }, "geometry": { "type": "Point", "coordinates": [ -73.939671001711559, 40.750835000463169 ] } },
{ "type": "Feature", "properties": { "NAME": "973 8 Avenue", "URL": "http:\/\/www.mta.info\/nyct\/service\/", "LINE": "1-2-A-C-B-D" }, "geometry": { "type": "Point", "coordinates": [ -73.98297099877901, 40.766942999337161 ] } },
{ "type": "Feature", "properties": { "NAME": "265 Broadway (To Manhattan Only)", "URL": "http:\/\/www.mta.info\/nyct\/service\/", "LINE": "J-M-Z" }, "geometry": { "type": "Point", "coordinates": [ -73.958988968164107, 40.708913561694068 ] } },
{ "type": "Feature", "properties": { "NAME": "1654 77 Street", "URL": "http:\/\/www.mta.info\/nyct\/service\/", "LINE": "D" }, "geometry": { "type": "Point", "coordinates": [ -74.000629230524936, 40.614166372086409 ] } },
{ "type": "Feature", "properties": { "NAME": "233 Livonia Avenue", "URL": "http:\/\/www.mta.info\/nyct\/service\/", "LINE": "3-4" }, "geometry": { "type": "Point", "coordinates": [ -73.909102001351755, 40.662711999293357 ] } },
{ "type": "Feature", "properties": { "NAME": "1611 St Nicholas Avenue", "URL": "http:\/\/www.mta.info\/nyct\/service\/", "LINE": "1" }, "geometry": { "type": "Point", "coordinates": [ -73.929606000945412, 40.855381999299645 ] } },
{ "type": "Feature", "properties": { "NAME": "1673 79 Street", "URL": "http:\/\/www.mta.info\/nyct\/service\/", "LINE": "D" }, "geometry": { "type": "Point", "coordinates": [ -74.000983998803164, 40.612822999764958 ] } },
{ "type": "Feature", "properties": { "NAME": "1081 6 Avenue", "URL": "http:\/\/www.mta.info\/nyct\/service\/", "LINE": "7-7 Express-B-D-F-M" }, "geometry": { "type": "Point", "coordinates": [ -73.984627000989505, 40.754849000568306 ] } },
{ "type": "Feature", "properties": { "NAME": "390 6 Avenue", "URL": "http:\/\/www.mta.info\/nyct\/service\/", "LINE": "A-C-E-B-D-F-M" }, "geometry": { "type": "Point", "coordinates": [ -73.999614999778842, 40.733258998582848 ] } },
{ "type": "Feature", "properties": { "NAME": "741 St Nicholas Avenue", "URL": "http:\/\/www.mta.info\/nyct\/service\/", "LINE": "A-C-B-D" }, "geometry": { "type": "Point", "coordinates": [ -73.943887002085035, 40.825542000276464 ] } },
{ "type": "Feature", "properties": { "NAME": "4761 Broadway", "URL": "http:\/\/www.mta.info\/nyct\/service\/", "LINE": "A" }, "geometry": { "type": "Point", "coordinates": [ -73.927172000281246, 40.865744000410317 ] } },
{ "type": "Feature", "properties": { "NAME": "344 Graham Avenue (To Manhattan Only)", "URL": "http:\/\/www.mta.info\/nyct\/service\/", "LINE": "L" }, "geometry": { "type": "Point", "coordinates": [ -73.944271000484875, 40.714686999701186 ] } },
{ "type": "Feature", "properties": { "NAME": "69 East 98 Street", "URL": "http:\/\/www.mta.info\/nyct\/service\/", "LINE": "3-4" }, "geometry": { "type": "Point", "coordinates": [ -73.922841999635139, 40.66514700161197 ] } },
{ "type": "Feature", "properties": { "NAME": "1518 Cortelyou Road", "URL": "http:\/\/www.mta.info\/nyct\/service\/", "LINE": "B-Q" }, "geometry": { "type": "Point", "coordinates": [ -73.96396799890617, 40.641279000938127 ] } },
{ "type": "Feature", "properties": { "NAME": "136-32 Roosevelt Avenue", "URL": "http:\/\/www.mta.info\/nyct\/service\/", "LINE": "7-7 Express" }, "geometry": { "type": "Point", "coordinates": [ -73.828811000070232, 40.759794001168366 ] } },
{ "type": "Feature", "properties": { "NAME": "100 Ditmas Avenue", "URL": "http:\/\/www.mta.info\/nyct\/service\/", "LINE": "F" }, "geometry": { "type": "Point", "coordinates": [ -73.977849999664983, 40.635441000332733 ] } },
{ "type": "Feature", "properties": { "NAME": "543 Metropolitan Avenue", "URL": "http:\/\/www.mta.info\/nyct\/service\/", "LINE": "G-L" }, "geometry": { "type": "Point", "coordinates": [ -73.950853763614901, 40.714198325310051 ] } },
{ "type": "Feature", "properties": { "NAME": "96-02 Liberty Avenue", "URL": "http:\/\/www.mta.info\/nyct\/service\/", "LINE": "A-S" }, "geometry": { "type": "Point", "coordinates": [ -73.842512001723975, 40.680572998982747 ] } },
{ "type": "Feature", "properties": { "NAME": "493 Clinton Avenue (To Manhattan Only)", "URL": "http:\/\/www.mta.info\/nyct\/service\/", "LINE": "A-C" }, "geometry": { "type": "Point", "coordinates": [ -73.966747152311115, 40.683628858843875 ] } },
{ "type": "Feature", "properties": { "NAME": "7514 4 Avenue", "URL": "http:\/\/www.mta.info\/nyct\/service\/", "LINE": "R" }, "geometry": { "type": "Point", "coordinates": [ -74.025507198592365, 40.630302854040643 ] } },
{ "type": "Feature", "properties": { "NAME": "51 East 42 Street", "URL": "http:\/\/www.mta.info\/nyct\/service\/", "LINE": "4-5-6-6 Express-7-7 Express-S" }, "geometry": { "type": "Point", "coordinates": [ -73.978487001446879, 40.752716999274163 ] } },
{ "type": "Feature", "properties": { "NAME": "3001 Foster Avenue (Enter (To Manhattan Only)", "URL": "http:\/\/www.mta.info\/nyct\/service\/", "LINE": "2-5" }, "geometry": { "type": "Point", "coordinates": [ -73.948196998393072, 40.639887000571605 ] } },
{ "type": "Feature", "properties": { "NAME": "Liberty St (Between 80 St And 81 St)", "URL": "http:\/\/www.mta.info\/nyct\/service\/", "LINE": "A-S" }, "geometry": { "type": "Point", "coordinates": [ -73.85771599969739, 40.679593999765309 ] } },
{ "type": "Feature", "properties": { "NAME": "1663 Atlantic Avenue", "URL": "http:\/\/www.mta.info\/nyct\/service\/", "LINE": "A-C" }, "geometry": { "type": "Point", "coordinates": [ -73.932160239583197, 40.67925555004777 ] } },
{ "type": "Feature", "properties": { "NAME": "31 East 53 Street", "URL": "http:\/\/www.mta.info\/nyct\/service\/", "LINE": "E-M" }, "geometry": { "type": "Point", "coordinates": [ -73.97385799992675, 40.759720999461436 ] } },
{ "type": "Feature", "properties": { "NAME": "1280 Fulton Street (To Queens Only)", "URL": "http:\/\/www.mta.info\/nyct\/service\/", "LINE": "A-C" }, "geometry": { "type": "Point", "coordinates": [ -73.949390869829671, 40.680244671461509 ] } },
{ "type": "Feature", "properties": { "NAME": "108-70 Roosevelt Avenue", "URL": "http:\/\/www.mta.info\/nyct\/service\/", "LINE": "7" }, "geometry": { "type": "Point", "coordinates": [ -73.855900999449531, 40.751408998492536 ] } },
{ "type": "Feature", "properties": { "NAME": "59-02 92 Street", "URL": "http:\/\/www.mta.info\/nyct\/service\/", "LINE": "E-M-R" }, "geometry": { "type": "Point", "coordinates": [ -73.869506998795913, 40.733601999064589 ] } },
{ "type": "Feature", "properties": { "NAME": "204 Broadway", "URL": "http:\/\/www.mta.info\/nyct\/service\/", "LINE": "2-3-4-5-A-C-J-Z" }, "geometry": { "type": "Point", "coordinates": [ -74.008631999706509, 40.710554999810547 ] } },
{ "type": "Feature", "properties": { "NAME": "551 Driggs Avenue", "URL": "http:\/\/www.mta.info\/nyct\/service\/", "LINE": "L" }, "geometry": { "type": "Point", "coordinates": [ -73.956175999855603, 40.717022000899291 ] } },